{"type":"FeatureCollection","features":[{"type":"Feature","geometry":{"type":"Point","coordinates":[-3.7038,40.4168]},"properties":{"name":"NAP de las Americas Madrid","company":"Terremark","city":"Madrid","country":"Spain"}},{"type":"Feature","geometry":{"type":"Point","coordinates":[103.8198,-1.3521]},"properties":{"name":"Central Office 2","company":"StarHub Ltd.","city":"Singapore","country":"Singapore"}},{"type":"Feature","geometry":{"type":"Point","coordinates":[23.5919947,46.7871608]},"properties":{"name":"Cluj-Napoca","company":"GTS Telecom SRL","city":"Cluj-Napoca","country":"Romania"}},{"type":"Feature","geometry":{"type":"Point","coordinates":[-0.0688659,5.9057032]},"properties":{"name":"Etix Accra #1","company":"Etix Everywhere","city":"Accra","country":"Ghana"}},{"type":"Feature","geometry":{"type":"Point","coordinates":[8.3848499,48.9996891]},"properties":{"name":"Karlsruhe","company":"1&1 Internet, Inc.","city":"Karlsruhe","country":"Germany"}},{"type":"Feature","geometry":{"type":"Point","coordinates":[47.9119937,29.2971097]},"properties":{"name":"National Bank of Kuwait","company":"National Bank of Kuwait (NBK)","city":"Farwaniya","country":"Kuwait"}},{"type":"Feature","geometry":{"type":"Point","coordinates":[-121.8863,37.3382]},"properties":{"name":"Silicon Valley Data Center","company":"Fibernet","city":"San","country":"United States"}},{"type":"Feature","geometry":{"type":"Point","coordinates":[-0.1278,51.5074]},"properties":{"name":"1 Brick Lane","company":"Interoute","city":"London","country":"United Kingdom"}},{"type":"Feature","geometry":{"type":"Point","coordinates":[103.8198,-1.3521]},"properties":{"name":"1 Changi Business Park Avenue 1","company":"Satyam Computer Services","city":"Singapore","country":"Singapore"}},{"type":"Feature","geometry":{"type":"Point","coordinates":[-0.1593644,51.2453634]},"properties":{"name":"1 Foxboro Rd","company":"Digital Realty Trust","city":"Redhill","country":"United Kingdom"}},{"type":"Feature","geometry":{"type":"Point","coordinates":[-0.1278,51.5074]},"properties":{"name":"1 Greenwich View Place","company":"CBRE","city":"London","country":"United Kingdom"}},{"type":"Feature","geometry":{"type":"Point","coordinates":[-71.0589,42.3601]},"properties":{"name":"1 Summer St.","company":"Zayo Group LLC","city":"Boston","country":"United States"}},{"type":"Feature","geometry":{"type":"Point","coordinates":[144.9631,-37.8136]},"properties":{"name":"1 Tarver Street","company":"Interactive","city":"Melbourne","country":"Australia"}},{"type":"Feature","geometry":{"type":"Point","coordinates":[-0.7702636,51.3313373]},"properties":{"name":"1  Camberley","company":"Sentrum","city":"Camberley","country":"United Kingdom"}},{"type":"Feature","geometry":{"type":"Point","coordinates":[150.796101,-33.8179371]},"properties":{"name":"1-21 Templar Road","company":"Digital Realty Trust","city":"Erskine","country":"Australia"}},{"type":"Feature","geometry":{"type":"Point","coordinates":[103.8198,-1.3521]},"properties":{"name":"1-Net East","company":"1-Net Singapore Pte Ltd","city":"Singapore","country":"Singapore"}},{"type":"Feature","geometry":{"type":"Point","coordinates":[103.8198,-1.3521]},"properties":{"name":"1-Net North","company":"1-Net Singapore Pte Ltd","city":"Singapore","country":"Singapore"}},{"type":"Feature","geometry":{"type":"Point","coordinates":[103.8198,-1.3521]},"properties":{"name":"1-Net North","company":"1-Net Singapore Pte Ltd","city":"Singapore","country":"Singapore"}},{"type":"Feature","geometry":{"type":"Point","coordinates":[1.4874351,43.6254898]},"properties":{"name":"10 Rue des Freres Peugeot","company":"Zayo Group LLC","city":"Balma","country":"France"}},{"type":"Feature","geometry":{"type":"Point","coordinates":[-87.6298,41.8781]},"properties":{"name":"10 South Canal St.","company":"Brookfield Infrastructure Partners LP","city":"Chicago","country":"United States"}},{"type":"Feature","geometry":{"type":"Point","coordinates":[-74.12675,40.8299306]},"properties":{"name":"100 Delawanna Avenue","company":"Digital Realty Trust","city":"Clifton","country":"United States"}},{"type":"Feature","geometry":{"type":"Point","coordinates":[153.0251,-27.4698]},"properties":{"name":"100 Wickham","company":"Over the Wire Pty. Ltd.","city":"Brisbane","country":"Australia"}},{"type":"Feature","geometry":{"type":"Point","coordinates":[-0.888005,51.4387515]},"properties":{"name":"1000 Eskdale Rd","company":"Cyxtera","city":"Eskdale","country":"United Kingdom"}},{"type":"Feature","geometry":{"type":"Point","coordinates":[-84.2941,34.0754]},"properties":{"name":"1001 Windward Concourse","company":"Mapletree Redwood Data Centre Trust (MRDCT)","city":"Alpharetta","country":"United States"}},{"type":"Feature","geometry":{"type":"Point","coordinates":[-84.5797393,33.7465626]},"properties":{"name":"101 Aquila Way","company":"Digital Realty Trust","city":"Austell","country":"United States"}},{"type":"Feature","geometry":{"type":"Point","coordinates":[-104.8238012,38.8355488]},"properties":{"name":"102 S. Tejon","company":"Data102","city":"Colorado","country":"United States"}},{"type":"Feature","geometry":{"type":"Point","coordinates":[-71.2195652,42.302236]},"properties":{"name":"105 Cabot St.","company":"Digital Realty Trust","city":"States","country":"United States"}},{"type":"Feature","geometry":{"type":"Point","coordinates":[-73.7520746,42.6500293]},"properties":{"name":"11 North Pearl","company":"The Heights Real Estate Company","city":"Albany","country":"United States"}},{"type":"Feature","geometry":{"type":"Point","coordinates":[-96.797,32.7767]},"properties":{"name":"1100 Empire Central Place","company":"Zayo Group LLC","city":"Dallas","country":"United States"}},{"type":"Feature","geometry":{"type":"Point","coordinates":[-121.9552,37.3541]},"properties":{"name":"1100 Space Park Drive","company":"Digital Realty Trust","city":"Space","country":"United States"}},{"type":"Feature","geometry":{"type":"Point","coordinates":[-84.388,33.749]},"properties":{"name":"1100 White St. SW","company":"Zayo Group LLC","city":"Atlanta","country":"United States"}},{"type":"Feature","geometry":{"type":"Point","coordinates":[-121.9552,37.3541]},"properties":{"name":"1101 Space Park Drive","company":"Colovore","city":"Space","country":"United States"}},{"type":"Feature","geometry":{"type":"Point","coordinates":[-94.5786,39.0997]},"properties":{"name":"1102 Grand","company":"Netrality","city":"Kansas","country":"United States"}},{"type":"Feature","geometry":{"type":"Point","coordinates":[-121.2707894,38.5952814]},"properties":{"name":"11085 Sun Center Drive","company":"Carter Validus Mission Critical REIT","city":"Rancho","country":"United States"}},{"type":"Feature","geometry":{"type":"Point","coordinates":[-74.006,40.7128]},"properties":{"name":"111 8th Avenue","company":"Zayo Group LLC","city":"New","country":"United States"}},{"type":"Feature","geometry":{"type":"Point","coordinates":[-74.006,40.7128]},"properties":{"name":"111 8th Avenue","company":"Digital Realty Trust","city":"New","country":"United States"}},{"type":"Feature","geometry":{"type":"Point","coordinates":[-74.006,40.7128]},"properties":{"name":"111 8th Avenue","company":"Equinix","city":"New","country":"United States"}},{"type":"Feature","geometry":{"type":"Point","coordinates":[-74.0337522,40.7263131]},"properties":{"name":"111 Town Square Place","company":"Atlas Communications Ltd.","city":"City","country":"United States"}},{"type":"Feature","geometry":{"type":"Point","coordinates":[-93.607249,44.801033]},"properties":{"name":"11191 Victoria Drive","company":"CBRE","city":"Chaska","country":"United States"}},{"type":"Feature","geometry":{"type":"Point","coordinates":[-122.3321,47.6062]},"properties":{"name":"1122 Third Ave.","company":"Brookfield Infrastructure Partners LP","city":"Seattle","country":"United States"}},{"type":"Feature","geometry":{"type":"Point","coordinates":[-95.3698,29.7604]},"properties":{"name":"1124 Hardy Rd","company":"CenturyLink","city":"Houston","country":"United States"}},{"type":"Feature","geometry":{"type":"Point","coordinates":[-93.147235,44.9706138]},"properties":{"name":"1125 Energy Park Drive","company":"Digital Realty Trust","city":"Drive","country":"United States"}},{"type":"Feature","geometry":{"type":"Point","coordinates":[-80.8431,35.2271]},"properties":{"name":"113 N Myers","company":"Digital Realty Trust","city":"Myers","country":"United States"}},{"type":"Feature","geometry":{"type":"Point","coordinates":[-71.2654147,42.3930594]},"properties":{"name":"115 Second Avenue","company":"Digital Realty Trust","city":"Avenue","country":"United States"}},{"type":"Feature","geometry":{"type":"Point","coordinates":[-84.388,33.749]},"properties":{"name":"1150 White Street SW","company":"Zayo Group LLC","city":"Atlanta","country":"United States"}},{"type":"Feature","geometry":{"type":"Point","coordinates":[-80.1918,25.7617]},"properties":{"name":"11500 NW 25th Street","company":"Cable&Wireless Worldwide","city":"6/7","country":"United States"}},{"type":"Feature","geometry":{"type":"Point","coordinates":[-105.073119,39.9051013]},"properties":{"name":"11525 Main Street","company":"Lincoln Rackhouse","city":"Broomfield","country":"United States"}},{"type":"Feature","geometry":{"type":"Point","coordinates":[-96.797,32.7767]},"properties":{"name":"11830 Webb Chapel Road","company":"Digital Realty Trust","city":"Road","country":"United States"}},{"type":"Feature","geometry":{"type":"Point","coordinates":[-104.8654208,39.6616992]},"properties":{"name":"11900 E Cornell Ave","company":"Digital Realty Trust","city":"Aurora","country":"United States"}},{"type":"Feature","geometry":{"type":"Point","coordinates":[-112.074,33.4484]},"properties":{"name":"120 E. Van Buren","company":"Digital Realty Trust","city":"Phoenix","country":"United States"}},{"type":"Feature","geometry":{"type":"Point","coordinates":[-95.3698,29.7604]},"properties":{"name":"12001-12245 North Freeway","company":"Digital Realty Trust","city":"Freeway","country":"United States"}},{"type":"Feature","geometry":{"type":"Point","coordinates":[-121.9552,37.3541]},"properties":{"name":"1201 Comstock","company":"Digital Realty Trust","city":"Santa","country":"United States"}},{"type":"Feature","geometry":{"type":"Point","coordinates":[-96.7299,32.9483]},"properties":{"name":"1210 Integrity Drive","company":"Digital Realty Trust","city":"Richardson","country":"United States"}},{"type":"Feature","geometry":{"type":"Point","coordinates":[-96.7299,32.9483]},"properties":{"name":"1215 Integrity Drive","company":"Digital Realty Trust","city":"Richardson","country":"United States"}},{"type":"Feature","geometry":{"type":"Point","coordinates":[-96.6989,33.0198]},"properties":{"name":"1221 Coit Road","company":"Mapletree Redwood Data Centre Trust (MRDCT)","city":"Plano","country":"United States"}},{"type":"Feature","geometry":{"type":"Point","coordinates":[-117.1611,32.7157]},"properties":{"name":"12270 World Trade Drive","company":"redIT","city":"World","country":"United States"}},{"type":"Feature","geometry":{"type":"Point","coordinates":[-117.1611,32.7157]},"properties":{"name":"12270 World Trade Drive","company":"Zayo Group LLC","city":"San","country":"United States"}},{"type":"Feature","geometry":{"type":"Point","coordinates":[153.0251,-27.4698]},"properties":{"name":"123 Eagle Street, Level 8","company":"AAPT","city":"Brisbane","country":"Australia"}},{"type":"Feature","geometry":{"type":"Point","coordinates":[-96.7299,32.9483]},"properties":{"name":"1232 Alma Road","company":"Digital Realty Trust","city":"Road","country":"United States"}},{"type":"Feature","geometry":{"type":"Point","coordinates":[-80.8431,35.2271]},"properties":{"name":"125 North Myers Street","company":"Digital Realty Trust","city":"Street","country":"United States"}},{"type":"Feature","geometry":{"type":"Point","coordinates":[-71.2218114,42.3017877]},"properties":{"name":"128 First Ave","company":"Digital Realty Trust","city":"Needham","country":"United States"}},{"type":"Feature","geometry":{"type":"Point","coordinates":[103.8198,-1.3521]},"properties":{"name":"13 Tai Seng Drive","company":"Nucleus Connet","city":"Singapore","country":"Singapore"}},{"type":"Feature","geometry":{"type":"Point","coordinates":[-74.2488997,40.5838627]},"properties":{"name":"1300 Federal Boulevard","company":"Goldman Sachs","city":"Boulevard","country":"United States"}},{"type":"Feature","geometry":{"type":"Point","coordinates":[-95.3698,29.7604]},"properties":{"name":"1301 Fannin","company":"Netrality","city":"Houston","country":"United States"}},{"type":"Feature","geometry":{"type":"Point","coordinates":[-114.0719,51.0447]},"properties":{"name":"1313 Calgary","company":"Pivot Data Centres","city":"Calgary","country":"Canada"}},{"type":"Feature","geometry":{"type":"Point","coordinates":[-122.0363,37.3688]},"properties":{"name":"1320 Kifer Rd","company":"Cyxtera","city":"Sunnyvale","country":"United States"}},{"type":"Feature","geometry":{"type":"Point","coordinates":[-87.6298,41.8781]},"properties":{"name":"1331 E Business Center Dr.","company":"Unclaimed","city":"Chicago","country":"United States"}},{"type":"Feature","geometry":{"type":"Point","coordinates":[-121.9552,37.3541]},"properties":{"name":"1350 Duane Avenue","company":"Digital Realty Trust","city":"Santa","country":"United States"}},{"type":"Feature","geometry":{"type":"Point","coordinates":[-1.247045,50.867845]},"properties":{"name":"14 - Green Co","company":"Green Colo Ltd","city":"Fareham","country":"United Kingdom"}},{"type":"Feature","geometry":{"type":"Point","coordinates":[-74.2433378,40.5845104]},"properties":{"name":"1400 Federal Boulevard","company":"NASDAQ","city":"Boulevard","country":"United States"}},{"type":"Feature","geometry":{"type":"Point","coordinates":[-122.0363,37.3688]},"properties":{"name":"1400 Kifer Rd","company":"Cyxtera","city":"Sunnyvale","country":"United States"}},{"type":"Feature","geometry":{"type":"Point","coordinates":[-87.6298,41.8781]},"properties":{"name":"141 West Jackson Boulevard","company":"CME Group","city":"States","country":"United States"}},{"type":"Feature","geometry":{"type":"Point","coordinates":[-88.0308469,41.9925799]},"properties":{"name":"1420 E Devon Ave","company":"Digital Realty Trust","city":"Elk","country":"United States"}},{"type":"Feature","geometry":{"type":"Point","coordinates":[3.8717041,43.5846568]},"properties":{"name":"143 Rue Emile Julien","company":"Zayo Group LLC","city":"Montpellier","country":"France"}},{"type":"Feature","geometry":{"type":"Point","coordinates":[-122.1215,47.674]},"properties":{"name":"14520 NE 87th St","company":"Griffin Capital Net Lease REIT","city":"Redmond","country":"United States"}},{"type":"Feature","geometry":{"type":"Point","coordinates":[153.0314782,-27.4553685]},"properties":{"name":"148 Brunswick","company":"PIPE Networks","city":"Fortitude","country":"Australia"}},{"type":"Feature","geometry":{"type":"Point","coordinates":[-121.8863,37.3382]},"properties":{"name":"150 South First Street","company":"Digital Realty Trust","city":"States","country":"United States"}},{"type":"Feature","geometry":{"type":"Point","coordinates":[-104.9903,39.7392]},"properties":{"name":"1500 Champa Street","company":"Zayo Group LLC","city":"Street","country":"United States"}},{"type":"Feature","geometry":{"type":"Point","coordinates":[-121.9552,37.3541]},"properties":{"name":"1500 Space Park Dr","company":"Digital Realty Trust","city":"Space","country":"United States"}},{"type":"Feature","geometry":{"type":"Point","coordinates":[-93.1681384,44.844285]},"properties":{"name":"1500 Towerview Road","company":"Digital Realty Trust","city":"Road","country":"United States"}},{"type":"Feature","geometry":{"type":"Point","coordinates":[-77.4286,39.0062]},"properties":{"name":"1506 Moran Road","company":"Digital Realty Trust","city":"Sterling","country":"United States"}},{"type":"Feature","geometry":{"type":"Point","coordinates":[-79.3832,43.6532]},"properties":{"name":"151 Front St W","company":"Zayo Group LLC","city":"Toronto","country":"Canada"}},{"type":"Feature","geometry":{"type":"Point","coordinates":[-79.3832,43.6532]},"properties":{"name":"151 Front Street","company":"Allied Properties REIT","city":"Toronto","country":"Canada"}},{"type":"Feature","geometry":{"type":"Point","coordinates":[-79.3832,43.6532]},"properties":{"name":"151 Front Street","company":"SoftLayer Technologies (IBM Cloud)","city":"Toronto","country":"Canada"}},{"type":"Feature","geometry":{"type":"Point","coordinates":[-79.3832,43.6532]},"properties":{"name":"151 Front Street West Toronto","company":"Northam Reality","city":"Toronto","country":"Canada"}},{"type":"Feature","geometry":{"type":"Point","coordinates":[-121.9552,37.3541]},"properties":{"name":"1525 Comstock Street","company":"Digital Realty Trust","city":"Santa","country":"United States"}},{"type":"Feature","geometry":{"type":"Point","coordinates":[-81.6944,41.4993]},"properties":{"name":"1525 Rockwell Ave","company":"Zayo Group LLC","city":"Cleveland","country":"United States"}},{"type":"Feature","geometry":{"type":"Point","coordinates":[2.259796,48.9065599]},"properties":{"name":"16 Avenue De LÉurope","company":"Zayo Group LLC","city":"Bois-Colombes","country":"France"}},{"type":"Feature","geometry":{"type":"Point","coordinates":[-74.1739458,40.7366527]},"properties":{"name":"165 Halsey","company":"Zayo Group LLC","city":"Newark","country":"United States"}},{"type":"Feature","geometry":{"type":"Point","coordinates":[-74.1739458,40.7366527]},"properties":{"name":"165 Halsey Street","company":"Tishman Real Estate Services","city":"States","country":"United States"}},{"type":"Feature","geometry":{"type":"Point","coordinates":[-96.797,32.7767]},"properties":{"name":"17201 Waterview Pkwy","company":"Digital Realty Trust","city":"Dallas","country":"United States"}},{"type":"Feature","geometry":{"type":"Point","coordinates":[-117.8406003,33.6904335]},"properties":{"name":"17222 Von Karman Ave","company":"Zayo Group LLC","city":"Irvine","country":"United States"}},{"type":"Feature","geometry":{"type":"Point","coordinates":[-121.9552,37.3541]},"properties":{"name":"1725 Comstock Street","company":"Digital Realty Trust","city":"Santa","country":"United States"}},{"type":"Feature","geometry":{"type":"Point","coordinates":[-117.8424523,33.6878845]},"properties":{"name":"17400 Von Karman Ave","company":"Zayo Group LLC","city":"Irvine","country":"United States"}},{"type":"Feature","geometry":{"type":"Point","coordinates":[-77.3276905,38.948764]},"properties":{"name":"1780 Business Center Drive","company":"Digital Realty Trust","city":"Reston","country":"United States"}},{"type":"Feature","geometry":{"type":"Point","coordinates":[-82.9988,39.9612]},"properties":{"name":"180 E Broad Street (Continental Plaza Building)","company":"Continental Realty","city":"Columbus","country":"United States"}},{"type":"Feature","geometry":{"type":"Point","coordinates":[-84.388,33.749]},"properties":{"name":"180 Peachtree","company":"Mapletree Redwood Data Centre Trust (MRDCT)","city":"Atlanta","country":"United States"}},{"type":"Feature","geometry":{"type":"Point","coordinates":[-80.8431,35.2271]},"properties":{"name":"1805 Center Park Drive","company":"Mapletree Redwood Data Centre Trust (MRDCT)","city":"Charlotte","country":"United States"}},{"type":"Feature","geometry":{"type":"Point","coordinates":[-87.9221419,41.8542957]},"properties":{"name":"1808 Swift Dr.","company":"Zayo Group LLC","city":"Oak","country":"United States"}},{"type":"Feature","geometry":{"type":"Point","coordinates":[153.0251,-27.4698]},"properties":{"name":"19 McKechnie","company":"Interactive","city":"Brisbane","country":"Australia"}},{"type":"Feature","geometry":{"type":"Point","coordinates":[2.3522,48.8566]},"properties":{"name":"19/21 Rue Poissonnière","company":"Zayo Group LLC","city":"Paris","country":"France"}},{"type":"Feature","geometry":{"type":"Point","coordinates":[-121.8863,37.3382]},"properties":{"name":"190 Park Center Plaza San Jose","company":"Telepacific","city":"San","country":"United States"}},{"type":"Feature","geometry":{"type":"Point","coordinates":[-111.892444,33.2768241]},"properties":{"name":"1900 S. Price Road","company":"Digital Realty Trust","city":"Chandler","country":"United States"}},{"type":"Feature","geometry":{"type":"Point","coordinates":[-78.6245371,35.8065914]},"properties":{"name":"1918 Wake Forest Rd","company":"CenturyLink","city":"Raleigh","country":"United States"}},{"type":"Feature","geometry":{"type":"Point","coordinates":[-112.074,33.4484]},"properties":{"name":"1919 w Lone Cactus Dr","company":"CyberTrails","city":"Phoenix","country":"United States"}},{"type":"Feature","geometry":{"type":"Point","coordinates":[-83.2381065,42.472174]},"properties":{"name":"19675 W Ten Mile Road","company":"Mapletree Redwood Data Centre Trust (MRDCT)","city":"Southfield","country":"United States"}},{"type":"Feature","geometry":{"type":"Point","coordinates":[-73.9894744,40.8691719]},"properties":{"name":"2 Christie Heights","company":"Mapletree Redwood Data Centre Trust (MRDCT)","city":"Leonia","country":"United States"}},{"type":"Feature","geometry":{"type":"Point","coordinates":[-0.1593644,51.2453634]},"properties":{"name":"2 Foxboro Rd","company":"Digital Realty Trust","city":"Redhill","country":"United Kingdom"}},{"type":"Feature","geometry":{"type":"Point","coordinates":[-74.1245144,40.8305858]},"properties":{"name":"2 Peekay Drive","company":"Digital Realty Trust","city":"Clifton","country":"United States"}},{"type":"Feature","geometry":{"type":"Point","coordinates":[-74.1245144,40.8305858]},"properties":{"name":"2 Peekay Drive","company":"CBRE","city":"Clifton","country":"United States"}},{"type":"Feature","geometry":{"type":"Point","coordinates":[-87.6298,41.8781]},"properties":{"name":"200 N. LaSalle","company":"CenturyLink","city":"Chicago","country":"United States"}},{"type":"Feature","geometry":{"type":"Point","coordinates":[-118.3863556,33.9176631]},"properties":{"name":"200 North Nash Street","company":"Digital Realty Trust","city":"Street","country":"United States"}},{"type":"Feature","geometry":{"type":"Point","coordinates":[-98.2313816,26.2019209]},"properties":{"name":"200 South 10th Street","company":"CBRE","city":"McAllen","country":"United States"}},{"type":"Feature","geometry":{"type":"Point","coordinates":[-80.1918,25.7617]},"properties":{"name":"200 Technology Center","company":"Transwestern","city":"Miami","country":"United States"}},{"type":"Feature","geometry":{"type":"Point","coordinates":[-75.1652,39.9526]},"properties":{"name":"2000 Kubach Road","company":"Mapletree Redwood Data Centre Trust (MRDCT)","city":"Philadelphia","country":"United States"}},{"type":"Feature","geometry":{"type":"Point","coordinates":[-122.3321,47.6062]},"properties":{"name":"2001 Sixth Avenue","company":"Digital Realty Trust","city":"Seattle","country":"United States"}},{"type":"Feature","geometry":{"type":"Point","coordinates":[-111.9009904,33.3423111]},"properties":{"name":"2010 East Centennial Circle","company":"Digital Realty Trust","city":"Tempe","country":"United States"}},{"type":"Feature","geometry":{"type":"Point","coordinates":[-96.797,32.7767]},"properties":{"name":"2020 Live Oak","company":"MCFMAX","city":"Dallas","country":"United States"}},{"type":"Feature","geometry":{"type":"Point","coordinates":[-121.9552,37.3541]},"properties":{"name":"2045 & 2055 LaFayette Street","company":"Digital Realty Trust","city":"Santa","country":"United States"}},{"type":"Feature","geometry":{"type":"Point","coordinates":[-121.7510763,37.1972758]},"properties":{"name":"2050 Martin Avenue","company":"Bay Area Internet Services (BAIS)","city":"States","country":"United States"}},{"type":"Feature","geometry":{"type":"Point","coordinates":[-86.7816,36.1627]},"properties":{"name":"209 10th Ave South","company":"Zayo Group LLC","city":"Nashville","country":"United States"}},{"type":"Feature","geometry":{"type":"Point","coordinates":[-90.1994,38.627]},"properties":{"name":"210 North Tucker","company":"Netrality","city":"St.","country":"United States"}},{"type":"Feature","geometry":{"type":"Point","coordinates":[-77.4286,39.0062]},"properties":{"name":"21110 Ridgetop Circle","company":"Digital Realty Trust","city":"Circle","country":"United States"}},{"type":"Feature","geometry":{"type":"Point","coordinates":[-111.8866379,33.2748973]},"properties":{"name":"2121 S. Price Road","company":"Digital Realty Trust","city":"Road","country":"United States"}},{"type":"Feature","geometry":{"type":"Point","coordinates":[-0.1278,51.5074]},"properties":{"name":"215 Marsh Wall","company":"Digital Realty Trust","city":"London","country":"United Kingdom"}},{"type":"Feature","geometry":{"type":"Point","coordinates":[-77.4874,39.0438]},"properties":{"name":"21551 Beaumeade Cir","company":"Digital Realty Trust","city":"Ashburn","country":"United States"}},{"type":"Feature","geometry":{"type":"Point","coordinates":[-77.4874,39.0438]},"properties":{"name":"21561-21571 Beaumeade Cir","company":"Digital Realty Trust","city":"Ashburn","country":"United States"}},{"type":"Feature","geometry":{"type":"Point","coordinates":[-87.6298,41.8781]},"properties":{"name":"216 West Jackson Boulevard","company":"ANET Internet Solutions","city":"Chicago","country":"United States"}},{"type":"Feature","geometry":{"type":"Point","coordinates":[-77.4874,39.0438]},"properties":{"name":"21625 Gresham Drive","company":"Digital Realty Trust","city":"Ashburn","country":"United States"}},{"type":"Feature","geometry":{"type":"Point","coordinates":[-77.4874,39.0438]},"properties":{"name":"21635 Red Rum Dr","company":"Zayo Group LLC","city":"Ashburn","country":"United States"}},{"type":"Feature","geometry":{"type":"Point","coordinates":[-77.4874,39.0438]},"properties":{"name":"21745 Sir Timothy Drive","company":"Digital Realty Trust","city":"Ashburn","country":"United States"}},{"type":"Feature","geometry":{"type":"Point","coordinates":[-87.9595107,41.9973883]},"properties":{"name":"2200 Busse Road","company":"Digital Realty Trust","city":"Elk","country":"United States"}},{"type":"Feature","geometry":{"type":"Point","coordinates":[-121.9552,37.3541]},"properties":{"name":"2220 De La Cruz Boulevard","company":"Digital Realty Trust","city":"Santa","country":"United States"}},{"type":"Feature","geometry":{"type":"Point","coordinates":[-118.3846185,33.915514]},"properties":{"name":"2260 East El Segundo Blvd","company":"Digital Realty Trust","city":"Segundo","country":"United States"}},{"type":"Feature","geometry":{"type":"Point","coordinates":[-0.1278,51.5074]},"properties":{"name":"227 Marsh Wall","company":"Digital Realty Trust","city":"London","country":"United Kingdom"}},{"type":"Feature","geometry":{"type":"Point","coordinates":[-77.4286,39.0062]},"properties":{"name":"22810 International Dr","company":"Cyxtera","city":"Sterling","country":"United States"}},{"type":"Feature","geometry":{"type":"Point","coordinates":[-77.4286,39.0062]},"properties":{"name":"22860 International Drive","company":"Cyxtera","city":"Drive","country":"United States"}},{"type":"Feature","geometry":{"type":"Point","coordinates":[-87.9577476,41.9943723]},"properties":{"name":"2299 Busse Road","company":"Digital Realty Trust","city":"Elk","country":"United States"}},{"type":"Feature","geometry":{"type":"Point","coordinates":[-77.4286,39.0062]},"properties":{"name":"22995 Wilder Court","company":"Cyxtera","city":"Court","country":"United States"}},{"type":"Feature","geometry":{"type":"Point","coordinates":[-80.1918,25.7617]},"properties":{"name":"2300 NW 89th Pl","company":"Digital Realty Trust","city":"Miami","country":"United States"}},{"type":"Feature","geometry":{"type":"Point","coordinates":[-96.797,32.7767]},"properties":{"name":"2323 Bryan Street","company":"Digital Realty Trust","city":"Street","country":"United States"}},{"type":"Feature","geometry":{"type":"Point","coordinates":[-121.8863,37.3382]},"properties":{"name":"2334 Lundy Place","company":"Digital Realty Trust","city":"Lundy","country":"United States"}},{"type":"Feature","geometry":{"type":"Point","coordinates":[153.0251,-27.4698]},"properties":{"name":"24 Little Edward","company":"Over the Wire Pty. Ltd.","city":"Brisbane","country":"Australia"}},{"type":"Feature","geometry":{"type":"Point","coordinates":[-94.5786,39.0997]},"properties":{"name":"2401 Holly Kansas City","company":"Wholesale Internet, Inc.","city":"Kansas","country":"United States"}},{"type":"Feature","geometry":{"type":"Point","coordinates":[-121.9552,37.3541]},"properties":{"name":"2401 Walsh Street","company":"Digital Realty Trust","city":"Walsh","country":"United States"}},{"type":"Feature","geometry":{"type":"Point","coordinates":[-121.9552,37.3541]},"properties":{"name":"2403 Walsh Street","company":"Digital Realty Trust","city":"Walsh","country":"United States"}},{"type":"Feature","geometry":{"type":"Point","coordinates":[-96.8554567,32.9780296]},"properties":{"name":"2440 Marsh Lane","company":"Digital Realty Trust","city":"Lane","country":"United States"}},{"type":"Feature","geometry":{"type":"Point","coordinates":[138.6007,-34.9285]},"properties":{"name":"247 Pulteney Street","company":"Colocity Pty Ltd","city":"Adelaide","country":"Australia"}},{"type":"Feature","geometry":{"type":"Point","coordinates":[-84.388,33.749]},"properties":{"name":"250 Williams Atlanta Data Center","company":"Carter Validus Mission Critical REIT","city":"Atlanta","country":"United States"}},{"type":"Feature","geometry":{"type":"Point","coordinates":[-84.388,33.749]},"properties":{"name":"250 Williams Street NW","company":"Digital Realty Trust","city":"Atlanta","country":"United States"}},{"type":"Feature","geometry":{"type":"Point","coordinates":[-77.3802967,38.955581]},"properties":{"name":"251 Exchange Place","company":"Lincoln Rackhouse","city":"Herndon","country":"United States"}},{"type":"Feature","geometry":{"type":"Point","coordinates":[-90.483647,41.5508188]},"properties":{"name":"2701 Devils Glen Road","company":"ColoHub LLC","city":"Bettendorf","country":"United States"}},{"type":"Feature","geometry":{"type":"Point","coordinates":[-122.3917665,37.7825848]},"properties":{"name":"274 Brannan Street","company":"The Swig Company","city":"San","country":"United States"}},{"type":"Feature","geometry":{"type":"Point","coordinates":[-84.1985252,33.9547304]},"properties":{"name":"2775 Northwoods Parkway","company":"Mapletree Redwood Data Centre Trust (MRDCT)","city":"Norcross","country":"United States"}},{"type":"Feature","geometry":{"type":"Point","coordinates":[-121.9552,37.3541]},"properties":{"name":"2805 Lafayette Street","company":"Digital Realty Trust","city":"Santa","country":"United States"}},{"type":"Feature","geometry":{"type":"Point","coordinates":[-121.9552,37.3541]},"properties":{"name":"2820 Northwestern Parkway","company":"Digital Realty Trust","city":"Pkwy","country":"United States"}},{"type":"Feature","geometry":{"type":"Point","coordinates":[103.8198,-1.3521]},"properties":{"name":"29A International Parkway","company":"Digital Realty Trust","city":"Singapore","country":"Singapore"}},{"type":"Feature","geometry":{"type":"Point","coordinates":[-74.4570679,40.5537911]},"properties":{"name":"3 Corporate Place","company":"Digital Realty Trust","city":"Piscataway","country":"United States"}},{"type":"Feature","geometry":{"type":"Point","coordinates":[103.8198,-1.3521]},"properties":{"name":"3 Loyang Way","company":"Digital Realty Trust","city":"Singapore","country":"Singapore"}},{"type":"Feature","geometry":{"type":"Point","coordinates":[-0.1278,51.5074]},"properties":{"name":"3 Waxlow Road","company":"Options Technology","city":"London","country":"United Kingdom"}},{"type":"Feature","geometry":{"type":"Point","coordinates":[-77.0369,38.9072]},"properties":{"name":"30 E St. SW","company":"Verizon","city":"Washington","country":"United States"}},{"type":"Feature","geometry":{"type":"Point","coordinates":[-74.0260271,40.7615218]},"properties":{"name":"300 Boulevard East","company":"Cyxtera","city":"East","country":"United States"}},{"type":"Feature","geometry":{"type":"Point","coordinates":[-96.6448553,32.7812613]},"properties":{"name":"3000SkylineDallas","company":"CAPSTAR Commercial Real Estate Service","city":"Skyline","country":"United States"}},{"type":"Feature","geometry":{"type":"Point","coordinates":[-121.9552,37.3541]},"properties":{"name":"3011 Lafayette Street","company":"Digital Realty Trust","city":"Lafayette","country":"United States"}},{"type":"Feature","geometry":{"type":"Point","coordinates":[-118.3427633,34.1993286]},"properties":{"name":"3015 Winona Avenue","company":"Digital Realty Trust","city":"Avenue","country":"United States"}},{"type":"Feature","geometry":{"type":"Point","coordinates":[-121.2725216,38.5914368]},"properties":{"name":"3065 Gold Camp Drive","company":"Carter Validus Mission Critical REIT","city":"Rancho","country":"United States"}},{"type":"Feature","geometry":{"type":"Point","coordinates":[-121.9552,37.3541]},"properties":{"name":"3080 Raymond Street","company":"Digital Realty Trust","city":"Street","country":"United States"}},{"type":"Feature","geometry":{"type":"Point","coordinates":[-0.1278,51.5074]},"properties":{"name":"31 Great Sutton Street","company":"Volta","city":"London","country":"United Kingdom"}},{"type":"Feature","geometry":{"type":"Point","coordinates":[-121.9552,37.3541]},"properties":{"name":"3105 Alfred Street","company":"Digital Realty Trust","city":"Santa","country":"United States"}},{"type":"Feature","geometry":{"type":"Point","coordinates":[-112.074,33.4484]},"properties":{"name":"3110 N. Central Ave.","company":"Zayo Group LLC","city":"Phoenix","country":"United States"}},{"type":"Feature","geometry":{"type":"Point","coordinates":[-112.074,33.4484]},"properties":{"name":"3110 North Central Avenue","company":"Unknown","city":"Phoenix","country":"United States"}},{"type":"Feature","geometry":{"type":"Point","coordinates":[-74.006,40.7128]},"properties":{"name":"32 Avenue of the Americas","company":"Digital Realty Trust","city":"New","country":"United States"}},{"type":"Feature","geometry":{"type":"Point","coordinates":[-121.9552,37.3541]},"properties":{"name":"3205 Alfred Street","company":"Digital Realty Trust","city":"Santa","country":"United States"}},{"type":"Feature","geometry":{"type":"Point","coordinates":[-87.9069379,43.0389885]},"properties":{"name":"324 E Wisconsin","company":"Towne Investments","city":"Milwaukee","country":"United States"}},{"type":"Feature","geometry":{"type":"Point","coordinates":[-74.006,40.7128]},"properties":{"name":"325 Hudson Street","company":"325 Hudson Street","city":"States","country":"United States"}},{"type":"Feature","geometry":{"type":"Point","coordinates":[-74.006,40.7128]},"properties":{"name":"325 Hudson Street","company":"Netrality","city":"New","country":"United States"}},{"type":"Feature","geometry":{"type":"Point","coordinates":[114.1694,22.3193]},"properties":{"name":"33 Chun Choi Street","company":"Digital Realty Trust","city":"Kong","country":"Hong Kong"}},{"type":"Feature","geometry":{"type":"Point","coordinates":[-96.7299,32.9483]},"properties":{"name":"3300 Essex Drive","company":"Mapletree Redwood Data Centre Trust (MRDCT)","city":"Richardson","country":"United States"}},{"type":"Feature","geometry":{"type":"Point","coordinates":[-122.2873698,47.4956246]},"properties":{"name":"3311 S. 120th","company":"Zayo Group LLC","city":"Tukwila","country":"United States"}},{"type":"Feature","geometry":{"type":"Point","coordinates":[-71.5803148,42.3135391]},"properties":{"name":"34 St. Martin","company":"Lincoln Rackhouse","city":"Marlborough","country":"United States"}},{"type":"Feature","geometry":{"type":"Point","coordinates":[-71.5803148,42.3135391]},"properties":{"name":"34 St. Martin Drive","company":"RREEF","city":"Marlborough","country":"United States"}},{"type":"Feature","geometry":{"type":"Point","coordinates":[153.0251,-27.4698]},"properties":{"name":"344 Queen St","company":"AAPT","city":"Brisbane","country":"Australia"}},{"type":"Feature","geometry":{"type":"Point","coordinates":[-79.3832,43.6532]},"properties":{"name":"35 John Street/250 Front Street West","company":"Allied Properties REIT","city":"West","country":"Canada"}},{"type":"Feature","geometry":{"type":"Point","coordinates":[-87.6298,41.8781]},"properties":{"name":"350 E Cermak Rd, Chicago","company":"Steadfast Networks","city":"Chicago","country":"United States"}},{"type":"Feature","geometry":{"type":"Point","coordinates":[-87.6298,41.8781]},"properties":{"name":"350 E Cermak Rd. Chicago","company":"Digital Realty Trust","city":"Rd.","country":"United States"}},{"type":"Feature","geometry":{"type":"Point","coordinates":[-87.6298,41.8781]},"properties":{"name":"350 East Cermak, 4th floor","company":"Cyxtera","city":"floor","country":"United States"}},{"type":"Feature","geometry":{"type":"Point","coordinates":[-87.6298,41.8781]},"properties":{"name":"350 East Cermak, 7th floor","company":"Cyxtera","city":"floor","country":"United States"}},{"type":"Feature","geometry":{"type":"Point","coordinates":[-80.0852677,26.3813992]},"properties":{"name":"3500 NW","company":"Real Effects","city":"Boca","country":"United States"}},{"type":"Feature","geometry":{"type":"Point","coordinates":[-80.1918,25.7617]},"properties":{"name":"36 NE 2nd St","company":"Digital Realty Trust","city":"Miami","country":"United States"}},{"type":"Feature","geometry":{"type":"Point","coordinates":[-80.1918,25.7617]},"properties":{"name":"36 NE 2nd St.","company":"Zayo Group LLC","city":"Miami","country":"United States"}},{"type":"Feature","geometry":{"type":"Point","coordinates":[-122.4194,37.7749]},"properties":{"name":"360 Spear Street","company":"Digital Realty Trust","city":"San","country":"United States"}},{"type":"Feature","geometry":{"type":"Point","coordinates":[-73.5673,45.5017]},"properties":{"name":"360/GT Montreal","company":"360 Networks","city":"Montreal","country":"Canada"}},{"type":"Feature","geometry":{"type":"Point","coordinates":[-79.3832,43.6532]},"properties":{"name":"360/GT Toronto","company":"360 Networks","city":"Toronto","country":"Canada"}},{"type":"Feature","geometry":{"type":"Point","coordinates":[-88.0072007,41.8458113]},"properties":{"name":"360TCS","company":"360TCS","city":"Lombard","country":"United States"}},{"type":"Feature","geometry":{"type":"Point","coordinates":[-122.3904691,37.788731]},"properties":{"name":"365 Main Street","company":"Fastmetrics","city":"San","country":"United States"}},{"type":"Feature","geometry":{"type":"Point","coordinates":[-122.3904691,37.788731]},"properties":{"name":"365 Main Street","company":"Digital Realty Trust","city":"San","country":"United States"}},{"type":"Feature","geometry":{"type":"Point","coordinates":[-74.4518191,40.5395481]},"properties":{"name":"365 S Randolphville","company":"Digital Realty Trust","city":"Piscataway","country":"United States"}},{"type":"Feature","geometry":{"type":"Point","coordinates":[-74.4592262,40.5530487]},"properties":{"name":"365 S Randolphville Rd","company":"Cyxtera","city":"Piscataway","country":"United States"}},{"type":"Feature","geometry":{"type":"Point","coordinates":[-121.8863,37.3382]},"properties":{"name":"3705 Raymond Street","company":"Syptec","city":"San","country":"United States"}},{"type":"Feature","geometry":{"type":"Point","coordinates":[-79.3236161,43.8382591]},"properties":{"name":"371 Gough Road","company":"Digital Realty Trust","city":"Markham","country":"Canada"}},{"type":"Feature","geometry":{"type":"Point","coordinates":[-84.5812829,33.7440486]},"properties":{"name":"375 Riverside Parkway","company":"Cyxtera","city":"Parkway","country":"United States"}},{"type":"Feature","geometry":{"type":"Point","coordinates":[-84.5812829,33.7440486]},"properties":{"name":"375 Riverside Parkway","company":"Digital Realty Trust","city":"Lithia","country":"United States"}},{"type":"Feature","geometry":{"type":"Point","coordinates":[144.9631,-37.8136]},"properties":{"name":"376 Flinders","company":"AAPT","city":"Melbourne","country":"Australia"}},{"type":"Feature","geometry":{"type":"Point","coordinates":[-79.7146014,43.5270479]},"properties":{"name":"3z Canada YYZ2","company":"3z Canada","city":"Sladeview","country":"Canada"}},{"type":"Feature","geometry":{"type":"Point","coordinates":[-84.388,33.749]},"properties":{"name":"40 Perimeter Center East","company":"Lincoln Rackhouse","city":"Atlanta","country":"United States"}},{"type":"Feature","geometry":{"type":"Point","coordinates":[-96.797,32.7767]},"properties":{"name":"400 S Akard Street","company":"Digital Realty Trust","city":"St.","country":"United States"}},{"type":"Feature","geometry":{"type":"Point","coordinates":[-96.797,32.7767]},"properties":{"name":"400 S. Akard","company":"Freeman Group","city":"States","country":"United States"}},{"type":"Feature","geometry":{"type":"Point","coordinates":[-106.6504,35.0844]},"properties":{"name":"400 Tijeras Ave NW","company":"Cyxtera","city":"Albuquerque","country":"United States"}},{"type":"Feature","geometry":{"type":"Point","coordinates":[-110.9073736,32.2362541]},"properties":{"name":"4003 East Speedway Boulevard","company":"Unknown","city":"Tucson","country":"United States"}},{"type":"Feature","geometry":{"type":"Point","coordinates":[-75.1652,39.9526]},"properties":{"name":"401 North Broad","company":"Netrality","city":"Philadelphia","country":"United States"}},{"type":"Feature","geometry":{"type":"Point","coordinates":[-86.7875755,36.0353291]},"properties":{"name":"402 Franklin Road","company":"Mapletree Redwood Data Centre Trust (MRDCT)","city":"Brentwood","country":"United States"}},{"type":"Feature","geometry":{"type":"Point","coordinates":[-96.843649,33.0213678]},"properties":{"name":"4025 Midway Rd","company":"Digital Realty Trust","city":"Carrollton","country":"United States"}},{"type":"Feature","geometry":{"type":"Point","coordinates":[-118.3454591,33.8582237]},"properties":{"name":"4100 W 190th St","company":"Unclaimed","city":"Torrance","country":"United States"}},{"type":"Feature","geometry":{"type":"Point","coordinates":[-118.2437,34.0522]},"properties":{"name":"420 South Grand Ave.","company":"Brookfield Infrastructure Partners LP","city":"Los","country":"United States"}},{"type":"Feature","geometry":{"type":"Point","coordinates":[-81.6557,30.3322]},"properties":{"name":"421 West Church Street","company":"421 West Church Street","city":"Jacksonville","country":"United States"}},{"type":"Feature","geometry":{"type":"Point","coordinates":[-96.797,32.7767]},"properties":{"name":"4211 Bryan St.","company":"Brookfield Infrastructure Partners LP","city":"Dallas","country":"United States"}},{"type":"Feature","geometry":{"type":"Point","coordinates":[-96.797,32.7767]},"properties":{"name":"4316 Bryan","company":"XC Networks","city":"Dallas","country":"United States"}},{"type":"Feature","geometry":{"type":"Point","coordinates":[144.9631,-37.8136]},"properties":{"name":"437 Williamstown Road","company":"Interactive","city":"Melbourne","country":"Australia"}},{"type":"Feature","geometry":{"type":"Point","coordinates":[-77.4874,39.0438]},"properties":{"name":"43790 Devin Shafron Dr","company":"Digital Realty Trust","city":"Ashburn","country":"United States"}},{"type":"Feature","geometry":{"type":"Point","coordinates":[-77.4874,39.0438]},"properties":{"name":"43791 Devin Shafron Dr","company":"Digital Realty Trust","city":"Ashburn","country":"United States"}},{"type":"Feature","geometry":{"type":"Point","coordinates":[-77.4874,39.0438]},"properties":{"name":"43830 Devin Shafron Dr","company":"Digital Realty Trust","city":"Ashburn","country":"United States"}},{"type":"Feature","geometry":{"type":"Point","coordinates":[-77.4874,39.0438]},"properties":{"name":"43881 Devin Shafron Dr","company":"Digital Realty Trust","city":"Ashburn","country":"United States"}},{"type":"Feature","geometry":{"type":"Point","coordinates":[-77.4874,39.0438]},"properties":{"name":"43915 Devin Shafron Dr","company":"Digital Realty Trust","city":"Ashburn","country":"United States"}},{"type":"Feature","geometry":{"type":"Point","coordinates":[-77.4874,39.0438]},"properties":{"name":"43940 Digital Loudoun Plaza","company":"Digital Realty Trust","city":"Ashburn","country":"United States"}},{"type":"Feature","geometry":{"type":"Point","coordinates":[-77.4874,39.0438]},"properties":{"name":"44060 Digital Loudoun Plaza","company":"Digital Realty Trust","city":"Ashburn","country":"United States"}},{"type":"Feature","geometry":{"type":"Point","coordinates":[-77.4874,39.0438]},"properties":{"name":"44100 Digital Loudoun Plaza","company":"Digital Realty Trust","city":"Ashburn","country":"United States"}},{"type":"Feature","geometry":{"type":"Point","coordinates":[-77.4874,39.0438]},"properties":{"name":"44461 Chilum Place","company":"Digital Realty Trust","city":"Ashburn","country":"United States"}},{"type":"Feature","geometry":{"type":"Point","coordinates":[-77.4874,39.0438]},"properties":{"name":"44470 Chillum Place","company":"Digital Realty Trust","city":"Ashburn","country":"United States"}},{"type":"Feature","geometry":{"type":"Point","coordinates":[-77.4874,39.0438]},"properties":{"name":"44480 Hastings Drive","company":"Digital Realty Trust","city":"Ashburn","country":"United States"}},{"type":"Feature","geometry":{"type":"Point","coordinates":[-77.4874,39.0438]},"properties":{"name":"44480 Hastings Road","company":"Digital Realty Trust","city":"Ashburn","country":"United States"}},{"type":"Feature","geometry":{"type":"Point","coordinates":[-77.4874,39.0438]},"properties":{"name":"44490 Chilum Place","company":"Digital Realty Trust","city":"Ashburn","country":"United States"}},{"type":"Feature","geometry":{"type":"Point","coordinates":[-93.4639539,44.7807426]},"properties":{"name":"4450 Dean Lakes Blvd","company":"Cyxtera","city":"Shakopee","country":"United States"}},{"type":"Feature","geometry":{"type":"Point","coordinates":[-77.4874,39.0438]},"properties":{"name":"44520 Hastings Drive","company":"Digital Realty Trust","city":"Ashburn","country":"United States"}},{"type":"Feature","geometry":{"type":"Point","coordinates":[138.6007,-34.9285]},"properties":{"name":"45 Pirie Street","company":"AAPT","city":"Adelaide","country":"Australia"}},{"type":"Feature","geometry":{"type":"Point","coordinates":[-77.4286,39.0062]},"properties":{"name":"45845 Nokes Blvd","company":"Cyxtera","city":"Sterling","country":"United States"}},{"type":"Feature","geometry":{"type":"Point","coordinates":[-77.4286,39.0062]},"properties":{"name":"45901 Nokes Blvd","company":"Digital Realty Trust","city":"Sterling","country":"United States"}},{"type":"Feature","geometry":{"type":"Point","coordinates":[-118.4410135,33.9816156]},"properties":{"name":"4640 Admiralty Way","company":"Unclaimed","city":"Marina","country":"United States"}},{"type":"Feature","geometry":{"type":"Point","coordinates":[-121.9552,37.3541]},"properties":{"name":"4650 Old Ironsides Drive","company":"Cyxtera","city":"Drive","country":"United States"}},{"type":"Feature","geometry":{"type":"Point","coordinates":[-85.641845,42.2553182]},"properties":{"name":"4664 Campus Drive","company":"Weidenhammer","city":"Drive","country":"United States"}},{"type":"Feature","geometry":{"type":"Point","coordinates":[-0.1278,51.5074]},"properties":{"name":"47 Milharbour","company":"Digital Realty Trust","city":"London","country":"United Kingdom"}},{"type":"Feature","geometry":{"type":"Point","coordinates":[-84.388,33.749]},"properties":{"name":"470 Exchange","company":"470 exchange","city":"Atlanta","country":"United States"}},{"type":"Feature","geometry":{"type":"Point","coordinates":[-121.9552,37.3541]},"properties":{"name":"4700 Old Ironsides Drive","company":"Cyxtera","city":"Drive","country":"United States"}},{"type":"Feature","geometry":{"type":"Point","coordinates":[-96.797,32.7767]},"properties":{"name":"4849 Alpha Road","company":"Digital Realty Trust","city":"Road","country":"United States"}},{"type":"Feature","geometry":{"type":"Point","coordinates":[-119.2947378,47.1866366]},"properties":{"name":"4949 Randolph Rd NE","company":"Cyxtera","city":"Lake","country":"United States"}},{"type":"Feature","geometry":{"type":"Point","coordinates":[103.8198,-1.3521]},"properties":{"name":"50 Yishun Industrial Park A","company":"Nucleus Connet","city":"Singapore","country":"Singapore"}},{"type":"Feature","geometry":{"type":"Point","coordinates":[-97.1081,32.7357]},"properties":{"name":"5000 Bowen","company":"Mapletree Redwood Data Centre Trust (MRDCT)","city":"Arlington","country":"United States"}},{"type":"Feature","geometry":{"type":"Point","coordinates":[-87.9128954,41.9189911]},"properties":{"name":"505 N Railroad Ave","company":"Digital Realty Trust","city":"Northlake","country":"United States"}},{"type":"Feature","geometry":{"type":"Point","coordinates":[-84.388,33.749]},"properties":{"name":"51 Peachtree Center Ave. NE","company":"Brookfield Infrastructure Partners LP","city":"Ave","country":"United States"}},{"type":"Feature","geometry":{"type":"Point","coordinates":[-121.9552,37.3541]},"properties":{"name":"5101 Lafayette St.","company":"Zayo Group LLC","city":"Santa","country":"United States"}},{"type":"Feature","geometry":{"type":"Point","coordinates":[-93.265,44.9778]},"properties":{"name":"511 Building - Minnesota Technology Center","company":"511 Building","city":"Minneapolis","country":"United States"}},{"type":"Feature","geometry":{"type":"Point","coordinates":[-78.8291431,35.8505281]},"properties":{"name":"5150 McCrimmon Parkway","company":"Mapletree Redwood Data Centre Trust (MRDCT)","city":"Morrisville","country":"United States"}},{"type":"Feature","geometry":{"type":"Point","coordinates":[-98.4936,29.4241]},"properties":{"name":"5200 Rogers Road","company":"Microsoft","city":"San","country":"United States"}},{"type":"Feature","geometry":{"type":"Point","coordinates":[144.9631,-37.8136]},"properties":{"name":"530 Collins","company":"Melbourne Data Centre","city":"Melbourne","country":"Australia"}},{"type":"Feature","geometry":{"type":"Point","coordinates":[-77.0369,38.9072]},"properties":{"name":"545 Washington Boulevard","company":"Knight Capital Group","city":"Boulevard","country":"United States"}},{"type":"Feature","geometry":{"type":"Point","coordinates":[151.2093,-33.8688]},"properties":{"name":"55 Clarence","company":"AAPT","city":"Sydney","country":"Australia"}},{"type":"Feature","geometry":{"type":"Point","coordinates":[-84.388,33.749]},"properties":{"name":"55 Marietta","company":"Bank Building Limited Partnership","city":"Atlanta","country":"United States"}},{"type":"Feature","geometry":{"type":"Point","coordinates":[-71.2367515,42.5124361]},"properties":{"name":"55 Middlesex Turnpike","company":"Digital Realty Trust","city":"Turnpike","country":"United States"}},{"type":"Feature","geometry":{"type":"Point","coordinates":[-0.1278,51.5074]},"properties":{"name":"55-71 City Rd","company":"Digital Realty Trust","city":"London","country":"United Kingdom"}},{"type":"Feature","geometry":{"type":"Point","coordinates":[-123.1207,49.2827]},"properties":{"name":"555 W Hastings St","company":"Cyxtera","city":"Vancouver","country":"Canada"}},{"type":"Feature","geometry":{"type":"Point","coordinates":[-63.5792809,44.644823]},"properties":{"name":"5562 Sackville St","company":"Internetworking Atlantic Inc. (IAI)","city":"Sackville","country":"Canada"}},{"type":"Feature","geometry":{"type":"Point","coordinates":[-84.388,33.749]},"properties":{"name":"56 Marietta Street","company":"Digital Realty Trust","city":"Atlanta","country":"United States"}},{"type":"Feature","geometry":{"type":"Point","coordinates":[-6.2603,53.3498]},"properties":{"name":"565 Metro Place South","company":"Metro Datacenter","city":"States","country":"United States"}},{"type":"Feature","geometry":{"type":"Point","coordinates":[-90.381426,38.772035]},"properties":{"name":"587 McDonnell Blvd.","company":"Cyxtera","city":"Blvd.","country":"United States"}},{"type":"Feature","geometry":{"type":"Point","coordinates":[2.3410779,48.9280589]},"properties":{"name":"6 Boulevard de la Liberation","company":"Ad Valem Technologies","city":"Saint-Denis","country":"France"}},{"type":"Feature","geometry":{"type":"Point","coordinates":[103.8198,-1.3521]},"properties":{"name":"6 Changi South Lane","company":"Mapletree Logistics Trust (MLT)","city":"Singapore","country":"Singapore"}},{"type":"Feature","geometry":{"type":"Point","coordinates":[103.8198,-1.3521]},"properties":{"name":"6 Changi South Lane","company":"Singapore Technologies Engineering (ST Engineering)","city":"Singapore","country":"Singapore"}},{"type":"Feature","geometry":{"type":"Point","coordinates":[103.8198,-1.3521]},"properties":{"name":"6 Changi South Lane","company":"Mapletree Logistics Trust (MLT)","city":"Singapore","country":"Singapore"}},{"type":"Feature","geometry":{"type":"Point","coordinates":[-0.1278,51.5074]},"properties":{"name":"6 Greenwich View","company":"Cyxtera","city":"London","country":"United Kingdom"}},{"type":"Feature","geometry":{"type":"Point","coordinates":[-74.006,40.7128]},"properties":{"name":"60 Hudson Street","company":"Digital Realty Trust","city":"New","country":"United States"}},{"type":"Feature","geometry":{"type":"Point","coordinates":[-73.8617906,41.1270828]},"properties":{"name":"600 Albany Post Road","company":"Lincoln Rackhouse","city":"Briarcliff","country":"United States"}},{"type":"Feature","geometry":{"type":"Point","coordinates":[-87.6298,41.8781]},"properties":{"name":"600 S Federal St.","company":"Zayo Group LLC","city":"Chicago","country":"United States"}},{"type":"Feature","geometry":{"type":"Point","coordinates":[-71.0589,42.3601]},"properties":{"name":"600 Winter St","company":"Digital Realty Trust","city":"Boston","country":"United States"}},{"type":"Feature","geometry":{"type":"Point","coordinates":[-87.6298,41.8781]},"properties":{"name":"600-780 South Federal","company":"Digital Realty Trust","city":"States","country":"United States"}},{"type":"Feature","geometry":{"type":"Point","coordinates":[-122.4194,37.7749]},"properties":{"name":"611 Folsom St.","company":"Brookfield Infrastructure Partners LP","city":"San","country":"United States"}},{"type":"Feature","geometry":{"type":"Point","coordinates":[-112.074,33.4484]},"properties":{"name":"615 N 48th St","company":"Cyxtera","city":"Phoenix","country":"United States"}},{"type":"Feature","geometry":{"type":"Point","coordinates":[-122.4033554,37.7708073]},"properties":{"name":"650 Townsend St","company":"Virtustream","city":"Francisco","country":"United States"}},{"type":"Feature","geometry":{"type":"Point","coordinates":[-96.797,32.7767]},"properties":{"name":"6606 LBJ Fwy","company":"Zayo Group LLC","city":"Dallas","country":"United States"}},{"type":"Feature","geometry":{"type":"Point","coordinates":[-96.6989,33.0198]},"properties":{"name":"6715 Pinecrest Drive","company":"Lincoln Rackhouse","city":"Plano","country":"United States"}},{"type":"Feature","geometry":{"type":"Point","coordinates":[-104.8479857,39.5917924]},"properties":{"name":"6900 S Peoria St","company":"Zayo Group LLC","city":"Centennial","country":"United States"}},{"type":"Feature","geometry":{"type":"Point","coordinates":[-97.7431,30.2672]},"properties":{"name":"700 Austin Ave","company":"Zayo Group LLC","city":"Waco","country":"United States"}},{"type":"Feature","geometry":{"type":"Point","coordinates":[-80.8431,35.2271]},"properties":{"name":"701 East Trade Street","company":"Lincoln Rackhouse","city":"Charlotte","country":"United States"}},{"type":"Feature","geometry":{"type":"Point","coordinates":[-87.6298,41.8781]},"properties":{"name":"701-703 S Lasalle St.","company":"Vinakom","city":"Chicago","country":"United States"}},{"type":"Feature","geometry":{"type":"Point","coordinates":[-118.2437,34.0522]},"properties":{"name":"707 Wilshire Blvd.","company":"Zayo Group LLC","city":"Los","country":"United States"}},{"type":"Feature","geometry":{"type":"Point","coordinates":[5.3698,43.2965]},"properties":{"name":"71 Av André Roussin","company":"Jaguar Network SAS","city":"Marseille","country":"France"}},{"type":"Feature","geometry":{"type":"Point","coordinates":[-96.797,32.7767]},"properties":{"name":"717 Leonard Street","company":"Digital Realty Trust","city":"Dallas","country":"United States"}},{"type":"Feature","geometry":{"type":"Point","coordinates":[-96.797,32.7767]},"properties":{"name":"717 North Harwood Street","company":"Crown Castle","city":"Dallas","country":"United States"}},{"type":"Feature","geometry":{"type":"Point","coordinates":[-87.6298,41.8781]},"properties":{"name":"717 South Wells","company":"Netrality","city":"Chicago","country":"United States"}},{"type":"Feature","geometry":{"type":"Point","coordinates":[-115.1398,36.1699]},"properties":{"name":"7185 Pollock Drive","company":"Zayo Group LLC","city":"Las","country":"United States"}},{"type":"Feature","geometry":{"type":"Point","coordinates":[144.9631,-37.8136]},"properties":{"name":"72 Radnor Drive","company":"Digital Realty Trust","city":"Melbourne","country":"Australia"}},{"type":"Feature","geometry":{"type":"Point","coordinates":[-83.2989121,42.8786004]},"properties":{"name":"720 Second Street","company":"Digital Realty Trust","city":"Oakland","country":"United States"}},{"type":"Feature","geometry":{"type":"Point","coordinates":[-97.7431,30.2672]},"properties":{"name":"7218 McNeil Drive","company":"Zayo Group LLC","city":"Austin","country":"United States"}},{"type":"Feature","geometry":{"type":"Point","coordinates":[-87.6298,41.8781]},"properties":{"name":"725 S. Wells Street, Chicago ","company":"Steadfast Networks","city":"Chicago","country":"United States"}},{"type":"Feature","geometry":{"type":"Point","coordinates":[-80.8431,35.2271]},"properties":{"name":"731 E Trade St","company":"Digital Realty Trust","city":"Charlotte","country":"United States"}},{"type":"Feature","geometry":{"type":"Point","coordinates":[-117.1611,32.7157]},"properties":{"name":"7337 Trade Street","company":"Mapletree Redwood Data Centre Trust (MRDCT)","city":"San","country":"United States"}},{"type":"Feature","geometry":{"type":"Point","coordinates":[-122.8802419,42.331861]},"properties":{"name":"739 Welch Drive","company":"Data Center West","city":"Medford","country":"United States"}},{"type":"Feature","geometry":{"type":"Point","coordinates":[-73.5601561,45.4993377]},"properties":{"name":"740 Notre Dame St West","company":"Zayo Group LLC","city":"Montréal","country":"Canada"}},{"type":"Feature","geometry":{"type":"Point","coordinates":[-73.5673,45.5017]},"properties":{"name":"740 Notre-Dame West","company":"740 Notre-Dame West","city":"Montreal","country":"Canada"}},{"type":"Feature","geometry":{"type":"Point","coordinates":[-97.7431,30.2672]},"properties":{"name":"7401 E. Ben White Boulevard","company":"Digital Realty Trust","city":"Austin","country":"United States"}},{"type":"Feature","geometry":{"type":"Point","coordinates":[-97.7431,30.2672]},"properties":{"name":"7500 Metro Center Dr","company":"Digital Realty Trust","city":"Austin","country":"United States"}},{"type":"Feature","geometry":{"type":"Point","coordinates":[-96.797,32.7767]},"properties":{"name":"7505 John W. Carpenter Freeway","company":"CoreSpace","city":"Freeway","country":"United States"}},{"type":"Feature","geometry":{"type":"Point","coordinates":[-77.5382685,38.7912098]},"properties":{"name":"7505 Mason King Court","company":"Digital Realty Trust","city":"Manassas","country":"United States"}},{"type":"Feature","geometry":{"type":"Point","coordinates":[-105.0810265,39.8835405]},"properties":{"name":"7579 W 103rd Ave","company":"Zayo Group LLC","city":"Westminster","country":"United States"}},{"type":"Feature","geometry":{"type":"Point","coordinates":[-84.388,33.749]},"properties":{"name":"760 Doug Davis Dr","company":"Digital Realty Trust","city":"Atlanta","country":"United States"}},{"type":"Feature","geometry":{"type":"Point","coordinates":[-89.8097005,35.202494]},"properties":{"name":"7620 Appling Center Dr","company":"Zayo Group LLC","city":"Memphis","country":"United States"}},{"type":"Feature","geometry":{"type":"Point","coordinates":[-97.7431,30.2672]},"properties":{"name":"7620 Metro Center Drive","company":"Digital Realty Trust","city":"Austin","country":"United States"}},{"type":"Feature","geometry":{"type":"Point","coordinates":[5.3698,43.2965]},"properties":{"name":"78 Blvd du Sablier","company":"Orange","city":"Marseille","country":"France"}},{"type":"Feature","geometry":{"type":"Point","coordinates":[-84.5179229,39.1027886]},"properties":{"name":"7th St.","company":"CyrusOne","city":"Cincinnati","country":"United States"}},{"type":"Feature","geometry":{"type":"Point","coordinates":[135.5976315,34.8140572]},"properties":{"name":"8-1, 5 Chome, Yamabuki, Saito","company":"Digital Realty Trust","city":"Ibaraki-shi","country":"Japan"}},{"type":"Feature","geometry":{"type":"Point","coordinates":[-73.1492921,41.2472364]},"properties":{"name":"80 Merritt Blvd","company":"Digital Realty Trust","city":"Trumbull","country":"United States"}},{"type":"Feature","geometry":{"type":"Point","coordinates":[-87.925736,42.07581]},"properties":{"name":"800 E Business Center Dr.","company":"Zayo Group LLC","city":"Prospect","country":"United States"}},{"type":"Feature","geometry":{"type":"Point","coordinates":[-118.2437,34.0522]},"properties":{"name":"800 South Hope","company":"Thomas Properties Group","city":"Los","country":"United States"}},{"type":"Feature","geometry":{"type":"Point","coordinates":[-81.542437,35.922702]},"properties":{"name":"801 Main Street NW","company":"Dacentec","city":"Lenoir","country":"United States"}},{"type":"Feature","geometry":{"type":"Point","coordinates":[-76.4673573,39.3679394]},"properties":{"name":"8029 Corporate Drive","company":"Lincoln Rackhouse","city":"Nottingham","country":"United States"}},{"type":"Feature","geometry":{"type":"Point","coordinates":[-74.006,40.7128]},"properties":{"name":"811 10th Ave","company":"Brookfield Infrastructure Partners LP","city":"New","country":"United States"}},{"type":"Feature","geometry":{"type":"Point","coordinates":[-97.7431,30.2672]},"properties":{"name":"8201 E. Riverside Drive, Building 4-6","company":"Digital Realty Trust","city":"Austin","country":"United States"}},{"type":"Feature","geometry":{"type":"Point","coordinates":[-77.6000547,38.778784]},"properties":{"name":"8217 Linton Hall Road","company":"Digital Realty Trust","city":"Gainesville","country":"United States"}},{"type":"Feature","geometry":{"type":"Point","coordinates":[-87.6298,41.8781]},"properties":{"name":"840 S Canal St","company":"Zayo Group LLC","city":"Chicago","country":"United States"}},{"type":"Feature","geometry":{"type":"Point","coordinates":[-87.6298,41.8781]},"properties":{"name":"840 South Canal Street","company":"Red Sea Group","city":"Street","country":"United States"}},{"type":"Feature","geometry":{"type":"Point","coordinates":[-96.797,32.7767]},"properties":{"name":"8435 N. Stemmons Freeway","company":"Digital Realty Trust","city":"Dallas","country":"United States"}},{"type":"Feature","geometry":{"type":"Point","coordinates":[-96.7299,32.9483]},"properties":{"name":"850 E. Collins Blvd","company":"Digital Realty Trust","city":"Blvd","country":"United States"}},{"type":"Feature","geometry":{"type":"Point","coordinates":[-111.8957585,33.6445902]},"properties":{"name":"8521 E Princess Dr","company":"Cyxtera","city":"Scottsdale","country":"United States"}},{"type":"Feature","geometry":{"type":"Point","coordinates":[-104.8307315,39.5608018]},"properties":{"name":"8534 Concord Center Dr","company":"Digital Realty Trust","city":"Englewood","country":"United States"}},{"type":"Feature","geometry":{"type":"Point","coordinates":[-96.797,32.7767]},"properties":{"name":"8600 Harry Hines Blvd.","company":"Zayo Group LLC","city":"Dallas","country":"United States"}},{"type":"Feature","geometry":{"type":"Point","coordinates":[138.6007,-34.9285]},"properties":{"name":"90 King William Street","company":"EscapeNet","city":"Adelaide","country":"Australia"}},{"type":"Feature","geometry":{"type":"Point","coordinates":[-96.7299,32.9483]},"properties":{"name":"900 Quality Way","company":"Digital Realty Trust","city":"Way","country":"United States"}},{"type":"Feature","geometry":{"type":"Point","coordinates":[-90.1994,38.627]},"properties":{"name":"900 Walnut","company":"Netrality","city":"St.","country":"United States"}},{"type":"Feature","geometry":{"type":"Point","coordinates":[-96.7299,32.9483]},"properties":{"name":"904 Quality Way","company":"Digital Realty Trust","city":"Way","country":"United States"}},{"type":"Feature","geometry":{"type":"Point","coordinates":[-96.7299,32.9483]},"properties":{"name":"907 Security Row","company":"Digital Realty Trust","city":"Richardson","country":"United States"}},{"type":"Feature","geometry":{"type":"Point","coordinates":[-96.7299,32.9483]},"properties":{"name":"908 Quality Way","company":"Digital Realty Trust","city":"Way","country":"United States"}},{"type":"Feature","geometry":{"type":"Point","coordinates":[-104.9903,39.7392]},"properties":{"name":"910Telecom","company":"910Telecom","city":"St.","country":"United States"}},{"type":"Feature","geometry":{"type":"Point","coordinates":[5.3698,43.2965]},"properties":{"name":"93 rue Felix Pyat","company":"Orange","city":"Marseille","country":"France"}},{"type":"Feature","geometry":{"type":"Point","coordinates":[-82.4572,27.9506]},"properties":{"name":"9310 Florida Palm Dr","company":"Cyxtera","city":"Tampa","country":"United States"}},{"type":"Feature","geometry":{"type":"Point","coordinates":[-96.7299,32.9483]},"properties":{"name":"950 E. Collins Blvd","company":"Digital Realty Trust","city":"Blvd","country":"United States"}},{"type":"Feature","geometry":{"type":"Point","coordinates":[-117.1611,32.7157]},"properties":{"name":"9606 Aero Drive","company":"redIT","city":"Drive","country":"United States"}},{"type":"Feature","geometry":{"type":"Point","coordinates":[-117.1611,32.7157]},"properties":{"name":"9606 Aero Drive","company":"Zayo Group LLC","city":"San","country":"United States"}},{"type":"Feature","geometry":{"type":"Point","coordinates":[144.779297,-37.7819699]},"properties":{"name":"98 Radnor Drive","company":"Digital Realty Trust","city":"Deer","country":"Australia"}},{"type":"Feature","geometry":{"type":"Point","coordinates":[-97.7431,30.2672]},"properties":{"name":"Austin (2100 S. IH-35)","company":"XO Communications","city":"Austin","country":"United States"}},{"type":"Feature","geometry":{"type":"Point","coordinates":[-76.6156302,39.28716]},"properties":{"name":"Baltimore (S. Charles)","company":"XO Communications","city":"Baltimore","country":"United States"}},{"type":"Feature","geometry":{"type":"Point","coordinates":[-71.0589,42.3601]},"properties":{"name":"Boston","company":"XO Communications","city":"Boston","country":"United States"}},{"type":"Feature","geometry":{"type":"Point","coordinates":[-87.6298,41.8781]},"properties":{"name":"Chicago (S. Dearborn)","company":"XO Communications","city":"Chicago","country":"United States"}},{"type":"Feature","geometry":{"type":"Point","coordinates":[-82.9988,39.9612]},"properties":{"name":"Columbus","company":"XO Communications","city":"Columbus","country":"United States"}},{"type":"Feature","geometry":{"type":"Point","coordinates":[-96.797,32.7767]},"properties":{"name":"Dallas (Mockingbird Ln.)","company":"XO Communications","city":"Dallas","country":"United States"}},{"type":"Feature","geometry":{"type":"Point","coordinates":[-83.2544341,42.44781]},"properties":{"name":"Detroit/Southfield (21455 Melrose Ave.)","company":"XO Communications","city":"Southfield","country":"United States"}},{"type":"Feature","geometry":{"type":"Point","coordinates":[-83.2553841,42.4477888]},"properties":{"name":"Detroit/Southfield (21555 Melrose Ave.)","company":"XO Communications","city":"Southfield","country":"United States"}},{"type":"Feature","geometry":{"type":"Point","coordinates":[-95.3698,29.7604]},"properties":{"name":"Houston (Fannin St.)","company":"XO Communications","city":"Houston","country":"United States"}},{"type":"Feature","geometry":{"type":"Point","coordinates":[-95.3698,29.7604]},"properties":{"name":"Houston (Portsmouth St.)","company":"XO Communications","city":"Houston","country":"United States"}},{"type":"Feature","geometry":{"type":"Point","coordinates":[-90.4216669,38.6941096]},"properties":{"name":"Maryland Heights","company":"XO Communications","city":"Maryland","country":"United States"}},{"type":"Feature","geometry":{"type":"Point","coordinates":[-93.265,44.9778]},"properties":{"name":"Minneapolis (Marquette Ave.)","company":"XO Communications","city":"Minneapolis","country":"United States"}},{"type":"Feature","geometry":{"type":"Point","coordinates":[-86.7816,36.1627]},"properties":{"name":"Nashville","company":"XO Communications","city":"Nashville","country":"United States"}},{"type":"Feature","geometry":{"type":"Point","coordinates":[-74.006,40.7128]},"properties":{"name":"New York (111 8th Ave., 5th Floor)","company":"XO Communications","city":"New","country":"United States"}},{"type":"Feature","geometry":{"type":"Point","coordinates":[-112.074,33.4484]},"properties":{"name":"Phoenix (3930 E. Watkins)","company":"XO Communications","city":"Phoenix","country":"United States"}},{"type":"Feature","geometry":{"type":"Point","coordinates":[-74.0708378,40.7932182]},"properties":{"name":"Secaucus","company":"XO Communications","city":"Secaucus","country":"United States"}},{"type":"Feature","geometry":{"type":"Point","coordinates":[139.6503,35.6762]},"properties":{"name":"@Tokyo","company":"AT TOKYO Corporation","city":"Tokyo","country":"Japan"}},{"type":"Feature","geometry":{"type":"Point","coordinates":[139.6503,35.6762]},"properties":{"name":"@Tokyo Chuo Center","company":"AT TOKYO Corporation","city":"Tokyo","country":"Japan"}},{"type":"Feature","geometry":{"type":"Point","coordinates":[4.7103894,52.6909939]},"properties":{"name":"Aagtdorp","company":"Essent","city":"Aagtdorp","country":"Netherlands"}},{"type":"Feature","geometry":{"type":"Point","coordinates":[4.7733584,52.2597959]},"properties":{"name":"Aalsmeer","company":"Getronics","city":"Aalsmeer","country":"Netherlands"}},{"type":"Feature","geometry":{"type":"Point","coordinates":[4.7733584,52.2597959]},"properties":{"name":"Aalsmeer","company":"KPN International","city":"Aalsmeer","country":"Netherlands"}},{"type":"Feature","geometry":{"type":"Point","coordinates":[-2.1514509,57.1520599]},"properties":{"name":"Aberdeen","company":"Brightsolid","city":"Aberdeen","country":"United Kingdom"}},{"type":"Feature","geometry":{"type":"Point","coordinates":[-3.7596001,5.2273497]},"properties":{"name":"Abidjan","company":"Orange","city":"d'Ivoire","country":"Côte d'Ivoire"}},{"type":"Feature","geometry":{"type":"Point","coordinates":[-4.0081301,5.3002608]},"properties":{"name":"Abidjan","company":"Alink Telecom","city":"d'Ivoire","country":"Côte d'Ivoire"}},{"type":"Feature","geometry":{"type":"Point","coordinates":[-4.0166913,5.3173518]},"properties":{"name":"Abidjan","company":"CenterServ","city":"d'Ivoire","country":"Côte d'Ivoire"}},{"type":"Feature","geometry":{"type":"Point","coordinates":[-99.7337585,32.4514019]},"properties":{"name":"Abilene","company":"Tolar Systems","city":"Abilene","country":"United States"}},{"type":"Feature","geometry":{"type":"Point","coordinates":[7.4818329,9.0701369]},"properties":{"name":"Abuja","company":"MTN","city":"Abuja","country":"Nigeria"}},{"type":"Feature","geometry":{"type":"Point","coordinates":[31.0218,29.8587]},"properties":{"name":"Abuja PoP","company":"Interconnection Clearinghouse Nigeria Limited (ICN)","city":"Abuja","country":"Nigeria"}},{"type":"Feature","geometry":{"type":"Point","coordinates":[8.6821,50.1109]},"properties":{"name":"Accelerated FRA4","company":"Accelerated IT Services GmbH","city":"Main","country":"Germany"}},{"type":"Feature","geometry":{"type":"Point","coordinates":[-0.2036704,5.5452439]},"properties":{"name":"Accra","company":"Barclays","city":"Accra","country":"Ghana"}},{"type":"Feature","geometry":{"type":"Point","coordinates":[-0.1796356,5.6171816]},"properties":{"name":"Accra","company":"MainOne","city":"Accra","country":"Ghana"}},{"type":"Feature","geometry":{"type":"Point","coordinates":[-0.2016678,5.5573353]},"properties":{"name":"Accra","company":"Fidelity Bank Limited","city":"Accra","country":"Ghana"}},{"type":"Feature","geometry":{"type":"Point","coordinates":[-0.1992695,5.5687008]},"properties":{"name":"Accra","company":"Internet Solutions (IS)","city":"Accra","country":"Ghana"}},{"type":"Feature","geometry":{"type":"Point","coordinates":[-0.0901987,5.6288265]},"properties":{"name":"Accra","company":"MTN","city":"Accra","country":"Ghana"}},{"type":"Feature","geometry":{"type":"Point","coordinates":[-0.2252375,5.565434]},"properties":{"name":"Accra-1","company":"PAIX Data Centres","city":"Accra","country":"Ghana"}},{"type":"Feature","geometry":{"type":"Point","coordinates":[-84.5570393,42.7540886]},"properties":{"name":"ACD.net MetroIX","company":"ACD.net","city":"Lansing","country":"United States"}},{"type":"Feature","geometry":{"type":"Point","coordinates":[2.1734,41.3851]},"properties":{"name":"Acero 30-32, Barcelona","company":"Schneider Electric","city":"Barcelona","country":"Spain"}},{"type":"Feature","geometry":{"type":"Point","coordinates":[69.1935657,34.5292477]},"properties":{"name":"ACG Data Center","company":"Asia Consultancy Group (ACG)","city":"Afghanistan","country":"Afghanistan"}},{"type":"Feature","geometry":{"type":"Point","coordinates":[114.0579,22.5431]},"properties":{"name":"ACME Cloud Centre","company":"ACME Universal Communications","city":"Shenzhen","country":"China"}},{"type":"Feature","geometry":{"type":"Point","coordinates":[-95.3698,29.7604]},"properties":{"name":"AcroNOC INC","company":"AcroNOC","city":"Houston","country":"United States"}},{"type":"Feature","geometry":{"type":"Point","coordinates":[115.8605,-31.9505]},"properties":{"name":"aCure","company":"aCure Technology","city":"Perth","country":"Australia"}},{"type":"Feature","geometry":{"type":"Point","coordinates":[44.5139108,40.1691762]},"properties":{"name":"ADC Core Network","company":"Armenian Datacom Company (ADC)","city":"Armenia","country":"Armenia"}},{"type":"Feature","geometry":{"type":"Point","coordinates":[138.6007,-34.9285]},"properties":{"name":"Adelaide","company":"PIPE Networks","city":"Adelaide","country":"Australia"}},{"type":"Feature","geometry":{"type":"Point","coordinates":[138.6007,-34.9285]},"properties":{"name":"Adelaide","company":"Metronode","city":"Adelaide","country":"Australia"}},{"type":"Feature","geometry":{"type":"Point","coordinates":[138.6007,-34.9285]},"properties":{"name":"Adelaide","company":"Logic Plus","city":"Adelaide","country":"Australia"}},{"type":"Feature","geometry":{"type":"Point","coordinates":[138.6007,-34.9285]},"properties":{"name":"Adelaide","company":"HostExpress","city":"Adelaide","country":"Australia"}},{"type":"Feature","geometry":{"type":"Point","coordinates":[138.5454068,-34.9041384]},"properties":{"name":"Adelaide","company":"Datacom","city":"Findon","country":"Australia"}},{"type":"Feature","geometry":{"type":"Point","coordinates":[138.6066583,-34.8273661]},"properties":{"name":"Adelaide","company":"Intervolve","city":"Pooraka","country":"Australia"}},{"type":"Feature","geometry":{"type":"Point","coordinates":[12.367628,55.667676]},"properties":{"name":"adeoDC","company":"adeoDC","city":"Albertslund","country":"Denmark"}},{"type":"Feature","geometry":{"type":"Point","coordinates":[-78.7330212,42.9567239]},"properties":{"name":"Advance2000","company":"Advance2000","city":"Williamsville","country":"United States"}},{"type":"Feature","geometry":{"type":"Point","coordinates":[-0.5792,44.8378]},"properties":{"name":"AGIRC ARRCO","company":"AGIRC ARRCO","city":"Bordeaux","country":"France"}},{"type":"Feature","geometry":{"type":"Point","coordinates":[-102.2967195,21.880487]},"properties":{"name":"Aguascalientes","company":"Nissan","city":"Aguascalientes","country":"Mexico"}},{"type":"Feature","geometry":{"type":"Point","coordinates":[-0.5792,44.8378]},"properties":{"name":"AHI33","company":"AHI33","city":"Bordeaux","country":"France"}},{"type":"Feature","geometry":{"type":"Point","coordinates":[72.5714,23.0225]},"properties":{"name":"Ahmedabad","company":"ST Telemedia GDC","city":"Ahmedabad","country":"India"}},{"type":"Feature","geometry":{"type":"Point","coordinates":[72.5714,23.0225]},"properties":{"name":"Ahmedabad","company":"Reliance Communications Ltd.","city":"Ahmedabad","country":"India"}},{"type":"Feature","geometry":{"type":"Point","coordinates":[1.4442,43.6047]},"properties":{"name":"Airbus Toulouse","company":"Airbus","city":"Toulouse","country":"France"}},{"type":"Feature","geometry":{"type":"Point","coordinates":[174.7646307,-36.8551635]},"properties":{"name":"Airedale","company":"Spark Digital","city":"Auckland","country":"New Zealand"}},{"type":"Feature","geometry":{"type":"Point","coordinates":[1.4442,43.6047]},"properties":{"name":"AirFrance Toulouse","company":"AIR FRANCE","city":"Toulouse","country":"France"}},{"type":"Feature","geometry":{"type":"Point","coordinates":[72.8777,19.076]},"properties":{"name":"Airoli","company":"Sify Corp","city":"Navi","country":"India"}},{"type":"Feature","geometry":{"type":"Point","coordinates":[-94.5786,39.0997]},"properties":{"name":"AirWorld Technology Center","company":"Layered Technologies, Inc.","city":"Kansas","country":"United States"}},{"type":"Feature","geometry":{"type":"Point","coordinates":[-94.5786,39.0997]},"properties":{"name":"AirWorld Technology Center","company":"Layered Technologies, Inc.","city":"Kansas","country":"United States"}},{"type":"Feature","geometry":{"type":"Point","coordinates":[-0.595,51.5105]},"properties":{"name":"Ajax Avenue 630","company":"Cyxtera","city":"Slough","country":"United Kingdom"}},{"type":"Feature","geometry":{"type":"Point","coordinates":[-0.595,51.5105]},"properties":{"name":"Ajax Avenue 631","company":"Cyxtera","city":"Slough","country":"United Kingdom"}},{"type":"Feature","geometry":{"type":"Point","coordinates":[5.933356,51.9873445]},"properties":{"name":"AkzoNobel Twincenter","company":"I4-Networks","city":"Arnhem","country":"Netherlands"}},{"type":"Feature","geometry":{"type":"Point","coordinates":[47.9674446,29.3733968]},"properties":{"name":"Al Samoud","company":"Kuwait National Guard","city":"City","country":"Kuwait"}},{"type":"Feature","geometry":{"type":"Point","coordinates":[-1.8559154,38.9950921]},"properties":{"name":"Albacete","company":"Area Project Solutions S.L.","city":"Albacete","country":"Spain"}},{"type":"Feature","geometry":{"type":"Point","coordinates":[-73.8183391,42.7357411]},"properties":{"name":"Albany (Airline Drive)","company":"CenturyLink","city":"Albany","country":"United States"}},{"type":"Feature","geometry":{"type":"Point","coordinates":[-73.7520746,42.6500293]},"properties":{"name":"Albany (North Pearl Street)","company":"FirstLight","city":"Albany","country":"United States"}},{"type":"Feature","geometry":{"type":"Point","coordinates":[-77.0369,38.9072]},"properties":{"name":"Albany Data Center","company":"Magna5","city":"Albany","country":"United States"}},{"type":"Feature","geometry":{"type":"Point","coordinates":[4.6713935,51.8590363]},"properties":{"name":"Alblasserdam","company":"Datapark Nederland","city":"Alblasserdam","country":"Netherlands"}},{"type":"Feature","geometry":{"type":"Point","coordinates":[-106.6026693,35.1446083]},"properties":{"name":"Albuquerque","company":"Pacific Office Auromation","city":"Blvd","country":"United States"}},{"type":"Feature","geometry":{"type":"Point","coordinates":[-3.366189,40.4890599]},"properties":{"name":"Alcalá Data Centre","company":"Telefonica","city":"Henares","country":"Spain"}},{"type":"Feature","geometry":{"type":"Point","coordinates":[0.0923247,48.4413976]},"properties":{"name":"Alencon","company":"AZNetwork","city":"Alencon","country":"France"}},{"type":"Feature","geometry":{"type":"Point","coordinates":[8.6291617,44.9079033]},"properties":{"name":"Alessandria","company":"Retelit","city":"Alessandria","country":"Italy"}},{"type":"Feature","geometry":{"type":"Point","coordinates":[175.0582169,-41.1345611]},"properties":{"name":"Alexander Rd, Trentham","company":"Revera","city":"Upper","country":"New Zealand"}},{"type":"Feature","geometry":{"type":"Point","coordinates":[175.0582169,-41.1345611]},"properties":{"name":"Alexander Rd, Trentham 2","company":"Revera","city":"Upper","country":"New Zealand"}},{"type":"Feature","geometry":{"type":"Point","coordinates":[151.1931585,-33.9149957]},"properties":{"name":"Alexandria","company":"Vocus Communications","city":"Alexandria","country":"Australia"}},{"type":"Feature","geometry":{"type":"Point","coordinates":[28.8594039,46.9896113]},"properties":{"name":"Alexhost","company":"Alexhost SRL","city":"Chișinău","country":""}},{"type":"Feature","geometry":{"type":"Point","coordinates":[-0.6116604,38.2882097]},"properties":{"name":"Alicante","company":"Access Basic Server \"Abserver\"","city":"Alicante","country":"Spain"}},{"type":"Feature","geometry":{"type":"Point","coordinates":[24.8551447,59.4341085]},"properties":{"name":"All Media Estonia","company":"Eesti Meedia","city":"Tallinn","country":"Estonia"}},{"type":"Feature","geometry":{"type":"Point","coordinates":[73.0555742,33.6842062]},"properties":{"name":"Allama Iqbal Open University","company":"Allama Iqbal Open University (AIOU)","city":"Islamabad","country":"Pakistan"}},{"type":"Feature","geometry":{"type":"Point","coordinates":[5.2031516,52.3857052]},"properties":{"name":"Almere","company":"Final Frontier","city":"Almere","country":"Netherlands"}},{"type":"Feature","geometry":{"type":"Point","coordinates":[5.2686074,52.3641672]},"properties":{"name":"Almere","company":"Getronics","city":"Almere","country":"Netherlands"}},{"type":"Feature","geometry":{"type":"Point","coordinates":[5.2686074,52.3641672]},"properties":{"name":"Almere","company":"Unica Schutte ICT","city":"Almere","country":"Netherlands"}},{"type":"Feature","geometry":{"type":"Point","coordinates":[5.2264793,52.3788618]},"properties":{"name":"Almere","company":"Vancis","city":"Almere","country":"Netherlands"}},{"type":"Feature","geometry":{"type":"Point","coordinates":[5.2686074,52.3641672]},"properties":{"name":"Almere","company":"KPN International","city":"Almere","country":"Netherlands"}},{"type":"Feature","geometry":{"type":"Point","coordinates":[5.2686074,52.3641672]},"properties":{"name":"Almere Data Centre 2","company":"Keppel Data Centres Germany Holding GmbH","city":"Almere","country":"Netherlands"}},{"type":"Feature","geometry":{"type":"Point","coordinates":[-84.2941,34.0754]},"properties":{"name":"Alpharetta (Westside Parkway)","company":"Hewlett Packard (HP)","city":"Alpharetta","country":"United States"}},{"type":"Feature","geometry":{"type":"Point","coordinates":[-84.2941,34.0754]},"properties":{"name":"Alpharetta Data Center","company":"Sungard","city":"Way","country":"United States"}},{"type":"Feature","geometry":{"type":"Point","coordinates":[-84.2941,34.0754]},"properties":{"name":"Alpharetta Data Center 3","company":"Carter Validus Mission Critical REIT","city":"Alpharetta","country":"United States"}},{"type":"Feature","geometry":{"type":"Point","coordinates":[-84.2941,34.0754]},"properties":{"name":"Alpharetta Data Center II","company":"Alpharetta DC","city":"Alpharetta","country":"United States"}},{"type":"Feature","geometry":{"type":"Point","coordinates":[9.1829,48.7758]},"properties":{"name":"Alpine Electronics R&D Europe","company":"Alpine Electronics","city":"Stuttgart","country":"Germany"}},{"type":"Feature","geometry":{"type":"Point","coordinates":[-1.9422436,52.3361619]},"properties":{"name":"Alvechurch","company":"Datatech UK","city":"Alvechurch","country":"United Kingdom"}},{"type":"Feature","geometry":{"type":"Point","coordinates":[100.6937296,13.6438257]},"properties":{"name":"Amata Nakorn","company":"TCC Technology Co., Ltd","city":"อำเภอเมือง","country":"Thailand"}},{"type":"Feature","geometry":{"type":"Point","coordinates":[80.2707,13.0827]},"properties":{"name":"Ambattur","company":"TATA Communications","city":"Chennai","country":"India"}},{"type":"Feature","geometry":{"type":"Point","coordinates":[153.0305421,-27.4543156]},"properties":{"name":"Amelia St 73","company":"Brennan IT","city":"Fortitude","country":"Australia"}},{"type":"Feature","geometry":{"type":"Point","coordinates":[4.9041,52.3676]},"properties":{"name":"AMS1","company":"Switch Datacenters","city":"Amsterdam","country":"Netherlands"}},{"type":"Feature","geometry":{"type":"Point","coordinates":[8.6713199,46.7751202]},"properties":{"name":"Amsteg","company":"Swiss Data Safe AG","city":"Amsteg","country":"Switzerland"}},{"type":"Feature","geometry":{"type":"Point","coordinates":[4.9041,52.3676]},"properties":{"name":"Amstel Business Park","company":"Digital Realty Trust","city":"Amsterdam","country":"Netherlands"}},{"type":"Feature","geometry":{"type":"Point","coordinates":[4.7661109,52.2840562]},"properties":{"name":"Amsterdam","company":"EdgeConneX","city":"Schiphol-Rijk","country":"Netherlands"}},{"type":"Feature","geometry":{"type":"Point","coordinates":[4.7560797,52.2793988]},"properties":{"name":"Amsterdam","company":"Interoute","city":"Schiphol-Rijk","country":"Netherlands"}},{"type":"Feature","geometry":{"type":"Point","coordinates":[4.9041,52.3676]},"properties":{"name":"Amsterdam","company":"Ziggo","city":"Amsterdam","country":"Netherlands"}},{"type":"Feature","geometry":{"type":"Point","coordinates":[4.9041,52.3676]},"properties":{"name":"Amsterdam","company":"Switch Datacenters","city":"Amsterdam","country":"Netherlands"}},{"type":"Feature","geometry":{"type":"Point","coordinates":[4.9041,52.3676]},"properties":{"name":"Amsterdam","company":"INAP (Internap Corporation)","city":"877.843.7627","country":"Netherlands"}},{"type":"Feature","geometry":{"type":"Point","coordinates":[4.9041,52.3676]},"properties":{"name":"Amsterdam","company":"Dimension Data","city":"Amsterdam","country":"Netherlands"}},{"type":"Feature","geometry":{"type":"Point","coordinates":[4.9041,52.3676]},"properties":{"name":"Amsterdam","company":"NIKHEF","city":"Amsterdam","country":"Netherlands"}},{"type":"Feature","geometry":{"type":"Point","coordinates":[4.9041,52.3676]},"properties":{"name":"Amsterdam","company":"WideXS","city":"Amsterdam","country":"Netherlands"}},{"type":"Feature","geometry":{"type":"Point","coordinates":[4.9041,52.3676]},"properties":{"name":"Amsterdam","company":"Liander","city":"Amsterdam","country":"Netherlands"}},{"type":"Feature","geometry":{"type":"Point","coordinates":[4.9041,52.3676]},"properties":{"name":"Amsterdam","company":"Databarn","city":"Amsterdam","country":"Netherlands"}},{"type":"Feature","geometry":{"type":"Point","coordinates":[4.9041,52.3676]},"properties":{"name":"Amsterdam","company":"BT Global Services","city":"Amsterdam","country":"Netherlands"}},{"type":"Feature","geometry":{"type":"Point","coordinates":[4.9041,52.3676]},"properties":{"name":"Amsterdam","company":"Pink Roccade","city":"Amsterdam","country":"Netherlands"}},{"type":"Feature","geometry":{"type":"Point","coordinates":[4.9041,52.3676]},"properties":{"name":"Amsterdam","company":"eFolder","city":"Amsterdam","country":"Netherlands"}},{"type":"Feature","geometry":{"type":"Point","coordinates":[4.9041,52.3676]},"properties":{"name":"Amsterdam","company":"GoDaddy","city":"Amsterdam","country":"Netherlands"}},{"type":"Feature","geometry":{"type":"Point","coordinates":[4.9041,52.3676]},"properties":{"name":"Amsterdam","company":"Viatel","city":"Amsterdam","country":"Netherlands"}},{"type":"Feature","geometry":{"type":"Point","coordinates":[4.9041,52.3676]},"properties":{"name":"Amsterdam","company":"Digital Ocean","city":"Amsterdam","country":"Netherlands"}},{"type":"Feature","geometry":{"type":"Point","coordinates":[4.9041,52.3676]},"properties":{"name":"Amsterdam","company":"PLANT hosting & co-location","city":"Amsterdam","country":"Netherlands"}},{"type":"Feature","geometry":{"type":"Point","coordinates":[4.9041,52.3676]},"properties":{"name":"Amsterdam","company":"Atos","city":"Amsterdam","country":"Netherlands"}},{"type":"Feature","geometry":{"type":"Point","coordinates":[4.9041,52.3676]},"properties":{"name":"Amsterdam","company":"Criteo","city":"Amsterdam","country":"Netherlands"}},{"type":"Feature","geometry":{"type":"Point","coordinates":[4.9041,52.3676]},"properties":{"name":"Amsterdam","company":"SoftLayer Technologies (IBM Cloud)","city":"Amsterdam","country":"Netherlands"}},{"type":"Feature","geometry":{"type":"Point","coordinates":[4.9041,52.3676]},"properties":{"name":"Amsterdam","company":"CoolWave Communications BV","city":"Amsterdam","country":"Netherlands"}},{"type":"Feature","geometry":{"type":"Point","coordinates":[4.9041,52.3676]},"properties":{"name":"Amsterdam","company":"Perigon Networks","city":"Amsterdam","country":"Netherlands"}},{"type":"Feature","geometry":{"type":"Point","coordinates":[4.9041,52.3676]},"properties":{"name":"Amsterdam","company":"euNetworks","city":"Amsterdam","country":"Netherlands"}},{"type":"Feature","geometry":{"type":"Point","coordinates":[4.9041,52.3676]},"properties":{"name":"Amsterdam","company":"Eweka Internet Services","city":"Amsterdam","country":"Netherlands"}},{"type":"Feature","geometry":{"type":"Point","coordinates":[4.9041,52.3676]},"properties":{"name":"Amsterdam","company":"Global Switch","city":"Amsterdam","country":"Netherlands"}},{"type":"Feature","geometry":{"type":"Point","coordinates":[4.9041,52.3676]},"properties":{"name":"Amsterdam","company":"Getronics","city":"Zuid-Oost","country":"Netherlands"}},{"type":"Feature","geometry":{"type":"Point","coordinates":[4.7433089,52.2794119]},"properties":{"name":"Amsterdam","company":"e-shelter services GmbH","city":"Rozenburg","country":"Netherlands"}},{"type":"Feature","geometry":{"type":"Point","coordinates":[4.9041,52.3676]},"properties":{"name":"Amsterdam","company":"Vancis","city":"Amsterdam","country":"Netherlands"}},{"type":"Feature","geometry":{"type":"Point","coordinates":[4.7661109,52.2840562]},"properties":{"name":"Amsterdam","company":"EdgeConneX","city":"1119","country":"Netherlands"}},{"type":"Feature","geometry":{"type":"Point","coordinates":[4.9041,52.3676]},"properties":{"name":"Amsterdam","company":"Brookfield Infrastructure Partners LP","city":"Amsterdam","country":"Netherlands"}},{"type":"Feature","geometry":{"type":"Point","coordinates":[4.7731197,52.2823173]},"properties":{"name":"Amsterdam","company":"maincubes b.v.","city":"NR","country":"Netherlands"}},{"type":"Feature","geometry":{"type":"Point","coordinates":[4.9041,52.3676]},"properties":{"name":"Amsterdam","company":"ASPHostPortal.com Web Services","city":"Amsterdam","country":"Netherlands"}},{"type":"Feature","geometry":{"type":"Point","coordinates":[4.6648124,52.392712]},"properties":{"name":"Amsterdam (J.W. Lucasweg)","company":"Iron Mountain","city":"Haarlem","country":"Netherlands"}},{"type":"Feature","geometry":{"type":"Point","coordinates":[4.9041,52.3676]},"properties":{"name":"Amsterdam 1","company":"Interxion","city":"Amsterdam","country":"Netherlands"}},{"type":"Feature","geometry":{"type":"Point","coordinates":[4.9041,52.3676]},"properties":{"name":"Amsterdam 1","company":"CenturyLink","city":"Amsterdam","country":"Netherlands"}},{"type":"Feature","geometry":{"type":"Point","coordinates":[4.7460319,52.2769926]},"properties":{"name":"Amsterdam 10","company":"Interxion","city":"Schiphol-Rijk","country":"Netherlands"}},{"type":"Feature","geometry":{"type":"Point","coordinates":[4.9041,52.3676]},"properties":{"name":"Amsterdam 2","company":"Interxion","city":"Amsterdam","country":"Netherlands"}},{"type":"Feature","geometry":{"type":"Point","coordinates":[4.9041,52.3676]},"properties":{"name":"Amsterdam 2","company":"Getronics","city":"Amsterdam","country":"Netherlands"}},{"type":"Feature","geometry":{"type":"Point","coordinates":[4.9041,52.3676]},"properties":{"name":"Amsterdam 2","company":"CenturyLink","city":"Amsterdam","country":"Netherlands"}},{"type":"Feature","geometry":{"type":"Point","coordinates":[4.9041,52.3676]},"properties":{"name":"Amsterdam 2","company":"Digital Ocean","city":"Amsterdam","country":"Netherlands"}},{"type":"Feature","geometry":{"type":"Point","coordinates":[4.7695727,52.2830427]},"properties":{"name":"Amsterdam 3","company":"Interxion","city":"Schiphol-Rijk","country":"Netherlands"}},{"type":"Feature","geometry":{"type":"Point","coordinates":[4.9041,52.3676]},"properties":{"name":"Amsterdam 4","company":"Interxion","city":"Amsterdam","country":"Netherlands"}},{"type":"Feature","geometry":{"type":"Point","coordinates":[4.7542777,52.2800662]},"properties":{"name":"Amsterdam 5","company":"Interxion","city":"Schiphol-Rijk","country":"Netherlands"}},{"type":"Feature","geometry":{"type":"Point","coordinates":[4.7659822,52.2853219]},"properties":{"name":"Amsterdam 6","company":"Interxion","city":"Schiphol-Rijk","country":"Netherlands"}},{"type":"Feature","geometry":{"type":"Point","coordinates":[4.7653127,52.2814454]},"properties":{"name":"Amsterdam 7","company":"Interxion","city":"Schiphol-Rijk","country":"Netherlands"}},{"type":"Feature","geometry":{"type":"Point","coordinates":[4.7460319,52.2769926]},"properties":{"name":"Amsterdam 8","company":"Interxion","city":"Schiphol-Rijk","country":"Netherlands"}},{"type":"Feature","geometry":{"type":"Point","coordinates":[4.9041,52.3676]},"properties":{"name":"Amsterdam Science Park 120","company":"Digital Realty Trust","city":"Amsterdam","country":"Netherlands"}},{"type":"Feature","geometry":{"type":"Point","coordinates":[4.9041,52.3676]},"properties":{"name":"Amsterdam South East","company":"Colt","city":"Amsterdam","country":"Netherlands"}},{"type":"Feature","geometry":{"type":"Point","coordinates":[4.9041,52.3676]},"properties":{"name":"Amsterdam-1","company":"Tele2","city":"Amsterdam","country":"Netherlands"}},{"type":"Feature","geometry":{"type":"Point","coordinates":[4.9041,52.3676]},"properties":{"name":"Amsterdam-2, Gyrocenter","company":"Tele2","city":"Amsterdam","country":"Netherlands"}},{"type":"Feature","geometry":{"type":"Point","coordinates":[-117.9704516,33.8469541]},"properties":{"name":"Anaheim","company":"Aecero","city":"Anaheim","country":"United States"}},{"type":"Feature","geometry":{"type":"Point","coordinates":[-0.1278,51.5074]},"properties":{"name":"Anchorage Point","company":"Six Degrees Group","city":"London","country":"United Kingdom"}},{"type":"Feature","geometry":{"type":"Point","coordinates":[78.4867,17.385]},"properties":{"name":"Andhra Pradesh","company":"Ensono","city":"Hyderabad","country":"India"}},{"type":"Feature","geometry":{"type":"Point","coordinates":[-71.2172623,42.6874538]},"properties":{"name":"Andover","company":"Navisite","city":"Rd,","country":"United States"}},{"type":"Feature","geometry":{"type":"Point","coordinates":[-71.2172623,42.6874538]},"properties":{"name":"Andover Data Center 2","company":"Carter Validus Mission Critical REIT","city":"Andover","country":"United States"}},{"type":"Feature","geometry":{"type":"Point","coordinates":[14.3094047,46.6170453]},"properties":{"name":"ANEXIA Klagenfurt","company":"ANEXIA Internetdienstleistungs GmbH","city":"Klagenfurt","country":"Austria"}},{"type":"Feature","geometry":{"type":"Point","coordinates":[-1.5491,53.8008]},"properties":{"name":"Angel House 1","company":"Sleek Networks","city":"Leeds","country":"United Kingdom"}},{"type":"Feature","geometry":{"type":"Point","coordinates":[13.2405434,-8.8908067]},"properties":{"name":"Angonap","company":"Angola Cables","city":"Angola","country":"Angola"}},{"type":"Feature","geometry":{"type":"Point","coordinates":[32.7464499,39.9673888]},"properties":{"name":"Ankara","company":"Global ?leti?im Hizmetleri A.?.","city":"Turkey","country":"Turkey"}},{"type":"Feature","geometry":{"type":"Point","coordinates":[7.0765772,43.6038834]},"properties":{"name":"Antibes","company":"NavLink","city":"Antibes","country":"France"}},{"type":"Feature","geometry":{"type":"Point","coordinates":[4.382188,51.2884159]},"properties":{"name":"Antwerp (Noorderlaan)","company":"Versatel AG","city":"Antwerpen","country":"Belgium"}},{"type":"Feature","geometry":{"type":"Point","coordinates":[4.4145698,51.2629975]},"properties":{"name":"Antwerp Data Center","company":"Antwerp DC","city":"Antwerpen","country":"Belgium"}},{"type":"Feature","geometry":{"type":"Point","coordinates":[114.1489022,22.2416997]},"properties":{"name":"Ap Lei Chau Data Centre","company":"CITIC Telecom International Limited","city":"香港","country":""}},{"type":"Feature","geometry":{"type":"Point","coordinates":[5.943138,52.1940165]},"properties":{"name":"Apeldoorn","company":"Computel Standby BV","city":"Apeldoorn","country":"Netherlands"}},{"type":"Feature","geometry":{"type":"Point","coordinates":[5.976732,52.232413]},"properties":{"name":"Apeldoorn","company":"Getronics","city":"Apeldoorn","country":"Netherlands"}},{"type":"Feature","geometry":{"type":"Point","coordinates":[6.0011602,52.2470826]},"properties":{"name":"Apeldoorn","company":"Solcon Internetdiensten B.V.","city":"Apeldoorn","country":"Netherlands"}},{"type":"Feature","geometry":{"type":"Point","coordinates":[6.0258964,52.2004563]},"properties":{"name":"Apeldoorn","company":"ITB2 Datacenters","city":"Apeldoorn","country":"Netherlands"}},{"type":"Feature","geometry":{"type":"Point","coordinates":[-85.7585,38.2527]},"properties":{"name":"Appliance Park","company":"GE (General Electric Company)","city":"Louisville","country":"United States"}},{"type":"Feature","geometry":{"type":"Point","coordinates":[-104.8437306,39.5949765]},"properties":{"name":"Arapahoe","company":"Flexential","city":"Centennial","country":"United States"}},{"type":"Feature","geometry":{"type":"Point","coordinates":[-74.006,40.7128]},"properties":{"name":"Arbinet 75 Broad St","company":"Arbinet","city":"New","country":"United States"}},{"type":"Feature","geometry":{"type":"Point","coordinates":[11.8379927,43.4599076]},"properties":{"name":"Arezzo 1","company":"Aruba.it","city":"Arezzo","country":"Italy"}},{"type":"Feature","geometry":{"type":"Point","coordinates":[11.8500683,43.4768982]},"properties":{"name":"Arezzo 2","company":"Aruba.it","city":"Arezzo","country":"Italy"}},{"type":"Feature","geometry":{"type":"Point","coordinates":[10.176071,56.152472]},"properties":{"name":"Arhus","company":"NM Net ApS","city":"Arhus","country":"Denmark"}},{"type":"Feature","geometry":{"type":"Point","coordinates":[10.177329,56.155773]},"properties":{"name":"Arhus","company":"nianet A/S","city":"Arhus","country":"Denmark"}},{"type":"Feature","geometry":{"type":"Point","coordinates":[-112.074,33.4484]},"properties":{"name":"Arizona","company":"Ebay","city":"Str","country":"United States"}},{"type":"Feature","geometry":{"type":"Point","coordinates":[-112.074,33.4484]},"properties":{"name":"Arizona Data Centers","company":"Arizona Data Centers","city":"Phoenix","country":"United States"}},{"type":"Feature","geometry":{"type":"Point","coordinates":[35.8511567,31.9579742]},"properties":{"name":"Armman","company":"iLevant","city":"Jordan","country":"Jordan"}},{"type":"Feature","geometry":{"type":"Point","coordinates":[5.933356,51.9873445]},"properties":{"name":"Arnhem","company":"Akzo Nobel","city":"Arnhem","country":"Netherlands"}},{"type":"Feature","geometry":{"type":"Point","coordinates":[5.940722,51.9664796]},"properties":{"name":"Arnhem - Kleefsewaard","company":"Dataplace","city":"Arnhem","country":"Netherlands"}},