{"type":"FeatureCollection","features":[{"type":"Feature","geometry":{"type":"Point","coordinates":[-3.5746748,40.4479788]},"properties":{"name":"NAP de las Americas Madrid","company":"Terremark","city":"Madrid","country":"Spain","street":"Calle de Yecora, 4","address":"Calle de Yecora, 4 28009 Madrid Spain"}},{"type":"Feature","geometry":{"type":"Point","coordinates":[103.8936956,1.3377346]},"properties":{"name":"Central Office 2","company":"StarHub Ltd.","city":"Singapore","country":"Singapore","street":"19 Tai Seng Dr","address":"19 Tai Seng Dr 535222 Singapore Singapore"}},{"type":"Feature","geometry":{"type":"Point","coordinates":[23.5919947,46.7871608]},"properties":{"name":"Cluj-Napoca","company":"GTS Telecom SRL","city":"Cluj-Napoca","country":"Romania","street":"Str. Garii nr. 21","address":"Str. Garii nr. 21 400267 Cluj-Napoca Romania"}},{"type":"Feature","geometry":{"type":"Point","coordinates":[-0.0024084,5.9625961]},"properties":{"name":"Etix Accra #1","company":"Etix Everywhere","city":"Accra","country":"Ghana","street":"R40","address":"R40 Accra Ghana"}},{"type":"Feature","geometry":{"type":"Point","coordinates":[8.3848499,48.9996891]},"properties":{"name":"Karlsruhe","company":"1&1 Internet, Inc.","city":"Karlsruhe","country":"Germany","street":"Brauerstraße 48","address":"Brauerstraße 48 76135 Karlsruhe Germany"}},{"type":"Feature","geometry":{"type":"Point","coordinates":[47.9119937,29.2971097]},"properties":{"name":"National Bank of Kuwait","company":"National Bank of Kuwait (NBK)","city":"Farwaniya","country":"Kuwait","street":"Block 1، Fifth Ring road","address":"Block 1، Fifth Ring road Farwaniya Kuwait"}},{"type":"Feature","geometry":{"type":"Point","coordinates":[-121.9058015,37.3335559]},"properties":{"name":"Silicon Valley Data Center","company":"Fibernet","city":"San","country":"United States","street":"250 Stockton Ave","address":"250 Stockton Ave 95126-2761 San Jose USA"}},{"type":"Feature","geometry":{"type":"Point","coordinates":[8.6114907,49.2640759]},"properties":{"name":"St. Leon-Rot","company":"SAP","city":"Sankt","country":"Germany","street":"68789 Sankt Leon-Rot Germany +49 (0)6227 / 7-4747","address":"68789 Sankt Leon-Rot Germany +49 (0)6227 / 7-4747"}},{"type":"Feature","geometry":{"type":"Point","coordinates":[-0.0710502,51.5173495]},"properties":{"name":"1 Brick Lane","company":"Interoute","city":"London","country":"United Kingdom","street":"1 Brick Ln E1 6PU","address":"1 Brick Ln E1 6PU London UK"}},{"type":"Feature","geometry":{"type":"Point","coordinates":[103.96365619999999,1.3365126999999999]},"properties":{"name":"1 Changi Business Park Avenue 1","company":"Satyam Computer Services","city":"Singapore","country":"Singapore","street":"1 Changi Business Park Ave 1, #04-02 Ultro Building","address":"1 Changi Business Park Ave 1, #04-02 Ultro Building 486058 Singapore Singapore"}},{"type":"Feature","geometry":{"type":"Point","coordinates":[-0.159365,51.2453635]},"properties":{"name":"1 Foxboro Rd","company":"Digital Realty Trust","city":"Redhill","country":"United Kingdom","street":"1 Foxboro Rd RH1 1TD","address":"1 Foxboro Rd RH1 1TD Redhill UK"}},{"type":"Feature","geometry":{"type":"Point","coordinates":[-0.0183079,51.4959285]},"properties":{"name":"1 Greenwich View Place","company":"CBRE","city":"London","country":"United Kingdom","street":"1 Greenwich View E14 9NN","address":"1 Greenwich View E14 9NN London UK"}},{"type":"Feature","geometry":{"type":"Point","coordinates":[-71.0601162,42.3551536]},"properties":{"name":"1 Summer St.","company":"Zayo Group LLC","city":"Boston","country":"United States","street":"1 Summer St, 7th Floor","address":"1 Summer St, 7th Floor 02110 Boston USA"}},{"type":"Feature","geometry":{"type":"Point","coordinates":[144.9206248,-37.8352263]},"properties":{"name":"1 Tarver Street","company":"Interactive","city":"Melbourne","country":"Australia","street":"1 Tarver Street Port","address":"1 Tarver Street Port Melbourne Australia"}},{"type":"Feature","geometry":{"type":"Point","coordinates":[-0.7702636,51.3313373]},"properties":{"name":"1  Camberley","company":"Sentrum","city":"Camberley","country":"United Kingdom","street":"Stanhope Road GU15 3DW","address":"Stanhope Road GU15 3DW Camberley United Kingdom"}},{"type":"Feature","geometry":{"type":"Point","coordinates":[150.796101,-33.8179371]},"properties":{"name":"1-21 Templar Road","company":"Digital Realty Trust","city":"Erskine","country":"Australia","street":"1-11 Templar Rd","address":"1-11 Templar Rd 2759 Erskine Park Australia"}},{"type":"Feature","geometry":{"type":"Point","coordinates":[103.9232718,1.3256121]},"properties":{"name":"1-Net East","company":"1-Net Singapore Pte Ltd","city":"Singapore","country":"Singapore","street":"Technopark, 750 Estuary Chai Chee Road","address":"Technopark, 750 Estuary Chai Chee Road 469005 Singapore Singapore"}},{"type":"Feature","geometry":{"type":"Point","coordinates":[103.7790669,1.4404809]},"properties":{"name":"1-Net North","company":"1-Net Singapore Pte Ltd","city":"Singapore","country":"Singapore","street":"Marsiling Road","address":"Marsiling Road 739144 Singapore Singapore"}},{"type":"Feature","geometry":{"type":"Point","coordinates":[103.9451247,1.35422]},"properties":{"name":"1-Net North","company":"1-Net Singapore Pte Ltd","city":"Singapore","country":"Singapore","street":"10 Tampines Central 1","address":"10 Tampines Central 1 529536 Singapore Singapore"}},{"type":"Feature","geometry":{"type":"Point","coordinates":[1.4874351,43.6254898]},"properties":{"name":"10 Rue des Freres Peugeot","company":"Zayo Group LLC","city":"Balma","country":"France","street":"10 Rue des Freres Peugeot ZI Vidailhan","address":"10 Rue des Freres Peugeot ZI Vidailhan 31130 Balma France"}},{"type":"Feature","geometry":{"type":"Point","coordinates":[-87.6402046,41.8815484]},"properties":{"name":"10 South Canal St.","company":"Brookfield Infrastructure Partners LP","city":"Chicago","country":"United States","street":"10 S Canal St","address":"10 S Canal St 60606-3739 Chicago USA"}},{"type":"Feature","geometry":{"type":"Point","coordinates":[-74.12675,40.8299306]},"properties":{"name":"100 Delawanna Avenue","company":"Digital Realty Trust","city":"Clifton","country":"United States","street":"100 Delawanna Ave","address":"100 Delawanna Ave 07014 Clifton USA"}},{"type":"Feature","geometry":{"type":"Point","coordinates":[153.031092,-27.4601076]},"properties":{"name":"100 Wickham","company":"Over the Wire Pty. Ltd.","city":"Brisbane","country":"Australia","street":"100 Wickham St, Fortitude Valley","address":"100 Wickham St, Fortitude Valley 4000 Brisbane Australia"}},{"type":"Feature","geometry":{"type":"Point","coordinates":[153.031092,-27.4601076]},"properties":{"name":"100 Wickham Street","company":"AAPT","city":"Fortitude","country":"Australia","street":"100 Wickham Street, Level 1","address":"100 Wickham Street, Level 1 4006 Fortitude Valley Australia"}},{"type":"Feature","geometry":{"type":"Point","coordinates":[-0.888005,51.4387515]},"properties":{"name":"1000 Eskdale Rd","company":"Cyxtera","city":"Eskdale","country":"United Kingdom","street":"1000 Eskdale Rd RG41 Wokingham","address":"1000 Eskdale Rd RG41 Wokingham UK"}},{"type":"Feature","geometry":{"type":"Point","coordinates":[-84.2371718,34.0967157]},"properties":{"name":"1001 Windward Concourse","company":"Mapletree Redwood Data Centre Trust (MRDCT)","city":"Alpharetta","country":"United States","street":"1001 Windward Concourse","address":"1001 Windward Concourse 30005-4154 Alpharetta USA"}},{"type":"Feature","geometry":{"type":"Point","coordinates":[-84.5797393,33.7465626]},"properties":{"name":"101 Aquila Way","company":"Digital Realty Trust","city":"Austell","country":"United States","street":"101 Aquila Way","address":"101 Aquila Way 30168 Austell United States"}},{"type":"Feature","geometry":{"type":"Point","coordinates":[-104.8238012,38.8355488]},"properties":{"name":"102 S. Tejon","company":"Data102","city":"Colorado","country":"United States","street":"102 S. Tejon","address":"102 S. Tejon 80903 Colorado Springs United States"}},{"type":"Feature","geometry":{"type":"Point","coordinates":[-71.2195652,42.302236]},"properties":{"name":"105 Cabot St.","company":"Digital Realty Trust","city":"States","country":"United States","street":"105 Cabot St. Needham United","address":"105 Cabot St. Needham United States"}},{"type":"Feature","geometry":{"type":"Point","coordinates":[-73.7520746,42.6500293]},"properties":{"name":"11 North Pearl","company":"The Heights Real Estate Company","city":"Albany","country":"United States","street":"11 N Pearl St","address":"11 N Pearl St 12207 Albany USA"}},{"type":"Feature","geometry":{"type":"Point","coordinates":[-96.8736273,32.8217447]},"properties":{"name":"1100 Empire Central Place","company":"Zayo Group LLC","city":"Dallas","country":"United States","street":"1100 Empire Central Pl","address":"1100 Empire Central Pl 75247-4306 Dallas USA"}},{"type":"Feature","geometry":{"type":"Point","coordinates":[-121.9533356,37.3757952]},"properties":{"name":"1100 Space Park Drive","company":"Digital Realty Trust","city":"Space","country":"United States","street":"1100 Space Park Drive Santa Clara United States","address":"1100 Space Park Drive Santa Clara United States"}},{"type":"Feature","geometry":{"type":"Point","coordinates":[-84.4257293,33.7339084]},"properties":{"name":"1100 White St. SW","company":"Zayo Group LLC","city":"Atlanta","country":"United States","street":"1100 White St SW","address":"1100 White St SW 30310-2636 Atlanta USA"}},{"type":"Feature","geometry":{"type":"Point","coordinates":[-121.9533791,37.376311]},"properties":{"name":"1101 Space Park Drive","company":"Colovore","city":"Space","country":"United States","street":"1101 Space Park Drive Santa Clara United States","address":"1101 Space Park Drive Santa Clara United States"}},{"type":"Feature","geometry":{"type":"Point","coordinates":[-94.5812414,39.1009164]},"properties":{"name":"1102 Grand","company":"Netrality","city":"Kansas","country":"United States","street":"1102 Grand Blvd","address":"1102 Grand Blvd 64106 Kansas City USA"}},{"type":"Feature","geometry":{"type":"Point","coordinates":[-121.2707894,38.5952814]},"properties":{"name":"11085 Sun Center Drive","company":"Carter Validus Mission Critical REIT","city":"Rancho","country":"United States","street":"Sun Center Dr 11085","address":"Sun Center Dr 11085 95670 Rancho Cordova United States"}},{"type":"Feature","geometry":{"type":"Point","coordinates":[-74.0020865,40.7408812]},"properties":{"name":"111 8th Avenue","company":"Zayo Group LLC","city":"New","country":"United States","street":"111 8th Avenue","address":"111 8th Avenue 10011 New York United States"}},{"type":"Feature","geometry":{"type":"Point","coordinates":[-74.0033873,40.7414688]},"properties":{"name":"111 8th Avenue","company":"Digital Realty Trust","city":"New","country":"United States","street":"111 8th Ave, Suite 307","address":"111 8th Ave, Suite 307 10011 New York USA"}},{"type":"Feature","geometry":{"type":"Point","coordinates":[-74.0041592,40.7417176]},"properties":{"name":"111 8th Avenue","company":"Equinix","city":"New","country":"United States","street":"111 8th Ave","address":"111 8th Ave 10011 New York USA"}},{"type":"Feature","geometry":{"type":"Point","coordinates":[-74.0337522,40.7263131]},"properties":{"name":"111 Town Square Place","company":"Atlas Communications Ltd.","city":"City","country":"United States","street":"111 Town Square","address":"111 Town Square Pl NJ 07310 Jersey City United States"}},{"type":"Feature","geometry":{"type":"Point","coordinates":[-93.6164709,44.8073618]},"properties":{"name":"11191 Victoria Drive","company":"CBRE","city":"Chaska","country":"United States","street":"11191 Victoria Drive","address":"11191 Victoria Drive 55318 Chaska United States"}},{"type":"Feature","geometry":{"type":"Point","coordinates":[-122.3347907,47.6069698]},"properties":{"name":"1122 Third Ave.","company":"Brookfield Infrastructure Partners LP","city":"Seattle","country":"United States","street":"1122 3rd Ave","address":"1122 3rd Ave 98101 Seattle USA"}},{"type":"Feature","geometry":{"type":"Point","coordinates":[-95.3540193,29.8179633]},"properties":{"name":"1124 Hardy Rd","company":"CenturyLink","city":"Houston","country":"United States","street":"1124 Hardy Rd","address":"1124 Hardy Rd 77020 Houston United States"}},{"type":"Feature","geometry":{"type":"Point","coordinates":[-93.1472766,44.9721955]},"properties":{"name":"1125 Energy Park Drive","company":"Digital Realty Trust","city":"Drive","country":"United States","street":"1125 Energy Park","address":"1125 Energy Park Drive MN 55108 St. Paul United States"}},{"type":"Feature","geometry":{"type":"Point","coordinates":[-80.8320886,35.2240662]},"properties":{"name":"113 N Myers","company":"Digital Realty Trust","city":"Myers","country":"United States","street":"113 N","address":"113 N Myers NC 28202 Charlotte United States"}},{"type":"Feature","geometry":{"type":"Point","coordinates":[-71.2654147,42.3930594]},"properties":{"name":"115 Second Avenue","company":"Digital Realty Trust","city":"Avenue","country":"United States","street":"115 Second","address":"115 Second Avenue MA 02451 Waltham United States"}},{"type":"Feature","geometry":{"type":"Point","coordinates":[-84.426634,33.7343565]},"properties":{"name":"1150 White Street SW","company":"Zayo Group LLC","city":"Atlanta","country":"United States","street":"1150 White St SW","address":"1150 White St SW 30310 Atlanta USA"}},{"type":"Feature","geometry":{"type":"Point","coordinates":[-80.3812526,25.795696]},"properties":{"name":"11500 NW 25th Street","company":"Cable&Wireless Worldwide","city":"6/7","country":"United States","street":"11500 NW 25th Street, NW 117th Avenue, Building","address":"11500 NW 25th Street, NW 117th Avenue, Building 6/7 FL 33172 Miami United States"}},{"type":"Feature","geometry":{"type":"Point","coordinates":[-105.073119,39.9051013]},"properties":{"name":"11525 Main Street","company":"Lincoln Rackhouse","city":"Broomfield","country":"United States","street":"11525 Main St","address":"11525 Main St 80020 Broomfield USA"}},{"type":"Feature","geometry":{"type":"Point","coordinates":[-96.8706571,32.911956]},"properties":{"name":"11830 Webb Chapel Road","company":"Digital Realty Trust","city":"Road","country":"United States","street":"11830 Webb Chapel","address":"11830 Webb Chapel Road TX 75234 Dallas United States"}},{"type":"Feature","geometry":{"type":"Point","coordinates":[-104.8428112,39.6616691]},"properties":{"name":"11900 E Cornell Ave","company":"Digital Realty Trust","city":"Aurora","country":"United States","street":"E Cornell Ave 11900","address":"E Cornell Ave 11900 80014 Aurora United States"}},{"type":"Feature","geometry":{"type":"Point","coordinates":[-112.0719077,33.4519107]},"properties":{"name":"120 E. Van Buren","company":"Digital Realty Trust","city":"Phoenix","country":"United States","street":"120 E. Van Buren","address":"120 E. Van Buren 85004 Phoenix United States"}},{"type":"Feature","geometry":{"type":"Point","coordinates":[-95.41684149999999,29.9431676]},"properties":{"name":"12001-12245 North Freeway","company":"Digital Realty Trust","city":"Freeway","country":"United States","street":"12001-12245 North","address":"12001-12245 North Freeway TX 77060 Houston United States"}},{"type":"Feature","geometry":{"type":"Point","coordinates":[-121.9540769,37.3749966]},"properties":{"name":"1201 Comstock","company":"Digital Realty Trust","city":"Santa","country":"United States","street":"1201 Comstock","address":"1201 Comstock 95054 Santa Clara United States"}},{"type":"Feature","geometry":{"type":"Point","coordinates":[-96.712599,32.965124]},"properties":{"name":"1210 Integrity Drive","company":"Digital Realty Trust","city":"Richardson","country":"United States","street":"1210 Integrity Dr","address":"1210 Integrity Dr 75081 Richardson USA"}},{"type":"Feature","geometry":{"type":"Point","coordinates":[-96.7158846,32.9648333]},"properties":{"name":"1215 Integrity Drive","company":"Digital Realty Trust","city":"Richardson","country":"United States","street":"1215 Integrity Dr","address":"1215 Integrity Dr 75081 Richardson USA"}},{"type":"Feature","geometry":{"type":"Point","coordinates":[-96.7665284,33.0172043]},"properties":{"name":"1221 Coit Road","company":"Mapletree Redwood Data Centre Trust (MRDCT)","city":"Plano","country":"United States","street":"1221 Coit Rd","address":"1221 Coit Rd 75075-7761 Plano USA"}},{"type":"Feature","geometry":{"type":"Point","coordinates":[-117.073246,32.9886013]},"properties":{"name":"12270 World Trade Drive","company":"redIT","city":"World","country":"United States","street":"12270 World Trade Drive San Diego United States","address":"12270 World Trade Drive San Diego United States"}},{"type":"Feature","geometry":{"type":"Point","coordinates":[-117.073246,32.9886013]},"properties":{"name":"12270 World Trade Drive","company":"Zayo Group LLC","city":"San","country":"United States","street":"12270 World Trade Dr","address":"12270 World Trade Dr 92128-3765 San Diego USA"}},{"type":"Feature","geometry":{"type":"Point","coordinates":[153.0304169,-27.4671689]},"properties":{"name":"123 Eagle Street, Level 8","company":"AAPT","city":"Brisbane","country":"Australia","street":"123 Eagle Street, level 8","address":"123 Eagle Street, level 8 4000 Brisbane Australia"}},{"type":"Feature","geometry":{"type":"Point","coordinates":[-96.7155959,32.9660061]},"properties":{"name":"1232 Alma Road","company":"Digital Realty Trust","city":"Road","country":"United States","street":"1232 Alma","address":"1232 Alma Road TX 75081 Richardson United States"}},{"type":"Feature","geometry":{"type":"Point","coordinates":[-80.8358072,35.221531]},"properties":{"name":"125 North Myers Street","company":"Digital Realty Trust","city":"Street","country":"United States","street":"125 North Myers","address":"125 North Myers Street NC 28202 Charlotte United States"}},{"type":"Feature","geometry":{"type":"Point","coordinates":[-71.2218114,42.3017877]},"properties":{"name":"128 First Ave","company":"Digital Realty Trust","city":"Needham","country":"United States","street":"128 1st Ave","address":"128 1st Ave 02494 Needham USA"}},{"type":"Feature","geometry":{"type":"Point","coordinates":[103.8947293,1.3382448]},"properties":{"name":"13 Tai Seng Drive","company":"Nucleus Connet","city":"Singapore","country":"Singapore","street":"13 Tai Seng Dr","address":"13 Tai Seng Dr 535219 Singapore Singapore"}},{"type":"Feature","geometry":{"type":"Point","coordinates":[-74.2488997,40.5838627]},"properties":{"name":"1300 Federal Boulevard","company":"Goldman Sachs","city":"Boulevard","country":"United States","street":"1300 Federal","address":"1300 Federal Boulevard NJ Carteret United States"}},{"type":"Feature","geometry":{"type":"Point","coordinates":[-95.365798,29.7534328]},"properties":{"name":"1301 Fannin","company":"Netrality","city":"Houston","country":"United States","street":"1301 Fannin St","address":"1301 Fannin St 77002 Houston USA"}},{"type":"Feature","geometry":{"type":"Point","coordinates":[-114.0719,51.0447]},"properties":{"name":"1313 Calgary","company":"Pivot Data Centres","city":"Calgary","country":"Canada","street":"to be provided","address":"to be provided Calgary Canada"}},{"type":"Feature","geometry":{"type":"Point","coordinates":[-122.01938,37.376749]},"properties":{"name":"1320 Kifer Rd","company":"Cyxtera","city":"Sunnyvale","country":"United States","street":"1320 Kifer Rd","address":"1320 Kifer Rd 94086 Sunnyvale USA"}},{"type":"Feature","geometry":{"type":"Point","coordinates":[-87.9156483,42.0784428]},"properties":{"name":"1331 E Business Center Dr.","company":"Unclaimed","city":"Chicago","country":"United States","street":"1331 E Business Center Dr.","address":"1331 E Business Center Dr. 60056 Chicago United States"}},{"type":"Feature","geometry":{"type":"Point","coordinates":[-121.9549839,37.3783955]},"properties":{"name":"1350 Duane Avenue","company":"Digital Realty Trust","city":"Santa","country":"United States","street":"1350 Duane Avenue","address":"1350 Duane Avenue 95054 Santa Clara United States"}},{"type":"Feature","geometry":{"type":"Point","coordinates":[-1.247045,50.867845]},"properties":{"name":"14 - Green Co","company":"Green Colo Ltd","city":"Fareham","country":"United Kingdom","street":"Brunel Way PO15 5TX","address":"Brunel Way PO15 5TX Fareham UK"}},{"type":"Feature","geometry":{"type":"Point","coordinates":[-74.2433378,40.5845104]},"properties":{"name":"1400 Federal Boulevard","company":"NASDAQ","city":"Boulevard","country":"United States","street":"1400 Federal","address":"1400 Federal Boulevard NJ Carteret United States"}},{"type":"Feature","geometry":{"type":"Point","coordinates":[-121.9861314,37.3720608]},"properties":{"name":"1400 Kifer Rd","company":"Cyxtera","city":"Sunnyvale","country":"United States","street":"1400 Kifer Rd","address":"1400 Kifer Rd 94086-5306 Sunnyvale USA"}},{"type":"Feature","geometry":{"type":"Point","coordinates":[-87.6322234,41.8769909]},"properties":{"name":"141 West Jackson Boulevard","company":"CME Group","city":"States","country":"United States","street":"141 West Jackson Boulevard Chicago United","address":"141 West Jackson Boulevard Chicago United States"}},{"type":"Feature","geometry":{"type":"Point","coordinates":[-87.9968732,41.9927374]},"properties":{"name":"1420 E Devon Ave","company":"Digital Realty Trust","city":"Elk","country":"United States","street":"1420 E Devon Ave","address":"1420 E Devon Ave 60007 Elk Grove Village USA"}},{"type":"Feature","geometry":{"type":"Point","coordinates":[3.8717041,43.5846568]},"properties":{"name":"143 Rue Emile Julien","company":"Zayo Group LLC","city":"Montpellier","country":"France","street":"143 Rue Emile Julien","address":"143 Rue Emile Julien 34070 Montpellier France"}},{"type":"Feature","geometry":{"type":"Point","coordinates":[-122.1479901,47.6820287]},"properties":{"name":"14520 NE 87th St","company":"Griffin Capital Net Lease REIT","city":"Redmond","country":"United States","street":"14520 NE 87th St WA 98052 Redmond United States","address":"14520 NE 87th St WA 98052 Redmond United States"}},{"type":"Feature","geometry":{"type":"Point","coordinates":[153.0314782,-27.4553685]},"properties":{"name":"148 Brunswick","company":"PIPE Networks","city":"Fortitude","country":"Australia","street":"148 Brunswick St","address":"148 Brunswick St 4006 Fortitude Valley Australia"}},{"type":"Feature","geometry":{"type":"Point","coordinates":[-97.0475061,32.835035]},"properties":{"name":"14901 FAA Blvd.","company":"Cyxtera","city":"Blvd.","country":"United States","street":"14901 FAA","address":"14901 FAA Blvd.  TX 76155 Fort Worth United States"}},{"type":"Feature","geometry":{"type":"Point","coordinates":[-121.88788609999999,37.3335966]},"properties":{"name":"150 South First Street","company":"Digital Realty Trust","city":"States","country":"United States","street":"150 South First Street San Jose United","address":"150 South First Street San Jose United States"}},{"type":"Feature","geometry":{"type":"Point","coordinates":[-104.994421,39.7457646]},"properties":{"name":"1500 Champa Street","company":"Zayo Group LLC","city":"Street","country":"United States","street":"1500 Champa","address":"1500 Champa Street CO 80202 Denver United States"}},{"type":"Feature","geometry":{"type":"Point","coordinates":[-121.9551844,37.3757683]},"properties":{"name":"1500 Space Park Dr","company":"Digital Realty Trust","city":"Space","country":"United States","street":"1500 Space Park Dr Santa Clara United States","address":"1500 Space Park Dr Santa Clara United States"}},{"type":"Feature","geometry":{"type":"Point","coordinates":[-93.1681384,44.844285]},"properties":{"name":"1500 Towerview Road","company":"Digital Realty Trust","city":"Road","country":"United States","street":"1500 Towerview","address":"1500 Towerview Road MN 55121 Eagan United States"}},{"type":"Feature","geometry":{"type":"Point","coordinates":[-77.4471318,38.9953111]},"properties":{"name":"1506 Moran Road","company":"Digital Realty Trust","city":"Sterling","country":"United States","street":"1506 Moran Rd","address":"1506 Moran Rd 20166-9306 Sterling USA"}},{"type":"Feature","geometry":{"type":"Point","coordinates":[-79.3837855,43.6446627]},"properties":{"name":"151 Front St W","company":"Zayo Group LLC","city":"Toronto","country":"Canada","street":"151 Front St W M5J 2Z1","address":"151 Front St W M5J 2Z1 Toronto Canada"}},{"type":"Feature","geometry":{"type":"Point","coordinates":[-79.3841764,43.6446634]},"properties":{"name":"151 Front Street","company":"Allied Properties REIT","city":"Toronto","country":"Canada","street":"151 Front Street","address":"151 Front Street Toronto Canada"}},{"type":"Feature","geometry":{"type":"Point","coordinates":[-79.3841764,43.6446634]},"properties":{"name":"151 Front Street","company":"SoftLayer Technologies (IBM Cloud)","city":"Toronto","country":"Canada","street":"151 Front Street","address":"151 Front Street Toronto Canada"}},{"type":"Feature","geometry":{"type":"Point","coordinates":[-79.3837855,43.6446627]},"properties":{"name":"151 Front Street West Toronto","company":"Northam Reality","city":"Toronto","country":"Canada","street":"151 Front Street West M5J 2N1","address":"151 Front Street West M5J 2N1 Toronto Canada"}},{"type":"Feature","geometry":{"type":"Point","coordinates":[-121.9559991,37.374881]},"properties":{"name":"1525 Comstock Street","company":"Digital Realty Trust","city":"Santa","country":"United States","street":"1525 Comstock Street","address":"1525 Comstock Street 95054 Santa Clara United States"}},{"type":"Feature","geometry":{"type":"Point","coordinates":[-81.6833018,41.5065059]},"properties":{"name":"1525 Rockwell Ave","company":"Zayo Group LLC","city":"Cleveland","country":"United States","street":"1525 Rockwell Ave.","address":"1525 Rockwell Ave. 44114 Cleveland United States"}},{"type":"Feature","geometry":{"type":"Point","coordinates":[2.2627585,48.9069512]},"properties":{"name":"16 Avenue De LÉurope","company":"Zayo Group LLC","city":"Bois-Colombes","country":"France","street":"16 Avenue de l'Europe","address":"16 Avenue de l'Europe 92270 Bois-Colombes France"}},{"type":"Feature","geometry":{"type":"Point","coordinates":[-74.1739458,40.7366527]},"properties":{"name":"165 Halsey","company":"Zayo Group LLC","city":"Newark","country":"United States","street":"165 Halsey St","address":"165 Halsey St 07102 Newark United States"}},{"type":"Feature","geometry":{"type":"Point","coordinates":[-74.1739458,40.7366527]},"properties":{"name":"165 Halsey Street","company":"Tishman Real Estate Services","city":"States","country":"United States","street":"165 Halsey Street Newark United","address":"165 Halsey Street Newark United States"}},{"type":"Feature","geometry":{"type":"Point","coordinates":[-96.7575766,32.9845402]},"properties":{"name":"17201 Waterview Pkwy","company":"Digital Realty Trust","city":"Dallas","country":"United States","street":"17201 Waterview Pkwy","address":"17201 Waterview Pkwy 75252 Dallas USA"}},{"type":"Feature","geometry":{"type":"Point","coordinates":[-117.8406003,33.6904335]},"properties":{"name":"17222 Von Karman Ave","company":"Zayo Group LLC","city":"Irvine","country":"United States","street":"17222 Von Karman Ave","address":"17222 Von Karman Ave 92614-6202 Irvine USA"}},{"type":"Feature","geometry":{"type":"Point","coordinates":[-121.9580962,37.3750232]},"properties":{"name":"1725 Comstock Street","company":"Digital Realty Trust","city":"Santa","country":"United States","street":"1725 Comstock Street","address":"1725 Comstock Street 95054 Santa Clara United States"}},{"type":"Feature","geometry":{"type":"Point","coordinates":[-117.8424523,33.6878845]},"properties":{"name":"17400 Von Karman Ave","company":"Zayo Group LLC","city":"Irvine","country":"United States","street":"17400 Von Karman Ave","address":"17400 Von Karman Ave 92614-6206 Irvine USA"}},{"type":"Feature","geometry":{"type":"Point","coordinates":[-77.3277043,38.9487713]},"properties":{"name":"1780 Business Center Drive","company":"Digital Realty Trust","city":"Reston","country":"United States","street":"1780 Business Center Dr","address":"1780 Business Center Dr 20190-5318 Reston USA"}},{"type":"Feature","geometry":{"type":"Point","coordinates":[-82.9958662,39.9632305]},"properties":{"name":"180 E Broad Street (Continental Plaza Building)","company":"Continental Realty","city":"Columbus","country":"United States","street":"180 E Broad Street","address":"180 E Broad Street 43215 Columbus United States"}},{"type":"Feature","geometry":{"type":"Point","coordinates":[-84.387703,33.758551]},"properties":{"name":"180 Peachtree","company":"Mapletree Redwood Data Centre Trust (MRDCT)","city":"Atlanta","country":"United States","street":"180 Peachtree St NW","address":"180 Peachtree St NW 30303 Atlanta USA"}},{"type":"Feature","geometry":{"type":"Point","coordinates":[-80.9275326,35.1742693]},"properties":{"name":"1805 Center Park Drive","company":"Mapletree Redwood Data Centre Trust (MRDCT)","city":"Charlotte","country":"United States","street":"1805 Center Park Dr","address":"1805 Center Park Dr 28217-2900 Charlotte USA"}},{"type":"Feature","geometry":{"type":"Point","coordinates":[-87.9221419,41.8542957]},"properties":{"name":"1808 Swift Dr.","company":"Zayo Group LLC","city":"Oak","country":"United States","street":"1808 Swift Dr","address":"1808 Swift Dr 60523 Oak Brook USA"}},{"type":"Feature","geometry":{"type":"Point","coordinates":[153.0957774,-27.5777741]},"properties":{"name":"19 McKechnie","company":"Interactive","city":"Brisbane","country":"Australia","street":"19 McKechnie","address":"19 McKechnie Brisbane Australia"}},{"type":"Feature","geometry":{"type":"Point","coordinates":[2.3478249,48.8696384]},"properties":{"name":"19/21 Rue Poissonnière","company":"Zayo Group LLC","city":"Paris","country":"France","street":"19/21 Rue Poissonnière","address":"19/21 Rue Poissonnière 75002 Paris France"}},{"type":"Feature","geometry":{"type":"Point","coordinates":[-121.891812,37.3323038]},"properties":{"name":"190 Park Center Plaza San Jose","company":"Telepacific","city":"San","country":"United States","street":"190 Park Center Plaza","address":"190 Park Center Plaza 95113 San Jose United States"}},{"type":"Feature","geometry":{"type":"Point","coordinates":[-111.892444,33.2768241]},"properties":{"name":"1900 S. Price Road","company":"Digital Realty Trust","city":"Chandler","country":"United States","street":"S Price Rd 1900","address":"S Price Rd 1900 85286 Chandler United States"}},{"type":"Feature","geometry":{"type":"Point","coordinates":[-78.6245371,35.8065914]},"properties":{"name":"1918 Wake Forest Rd","company":"CenturyLink","city":"Raleigh","country":"United States","street":"1918 Wake Forest Rd","address":"1918 Wake Forest Rd 27606 Raleigh United States"}},{"type":"Feature","geometry":{"type":"Point","coordinates":[-112.1009831,33.6795853]},"properties":{"name":"1919 w Lone Cactus Dr","company":"CyberTrails","city":"Phoenix","country":"United States","street":"1919 w Lone Cactus Dr","address":"1919 w Lone Cactus Dr 85027 Phoenix United States"}},{"type":"Feature","geometry":{"type":"Point","coordinates":[-83.2381065,42.472174]},"properties":{"name":"19675 W Ten Mile Road","company":"Mapletree Redwood Data Centre Trust (MRDCT)","city":"Southfield","country":"United States","street":"19675 W 10 Mile Rd","address":"19675 W 10 Mile Rd 48075 Southfield USA"}},{"type":"Feature","geometry":{"type":"Point","coordinates":[-73.9894744,40.8691719]},"properties":{"name":"2 Christie Heights","company":"Mapletree Redwood Data Centre Trust (MRDCT)","city":"Leonia","country":"United States","street":"2 Christie Heights St","address":"2 Christie Heights St 07605 Leonia USA"}},{"type":"Feature","geometry":{"type":"Point","coordinates":[-0.159365,51.2453635]},"properties":{"name":"2 Foxboro Rd","company":"Digital Realty Trust","city":"Redhill","country":"United Kingdom","street":"2 Foxboro Rd RH1 1TD","address":"2 Foxboro Rd RH1 1TD Redhill UK"}},{"type":"Feature","geometry":{"type":"Point","coordinates":[-74.1245144,40.8305858]},"properties":{"name":"2 Peekay Drive","company":"Digital Realty Trust","city":"Clifton","country":"United States","street":"Peekay Dr 2","address":"Peekay Dr 2 07014 Clifton United States"}},{"type":"Feature","geometry":{"type":"Point","coordinates":[-74.1245144,40.8305858]},"properties":{"name":"2 Peekay Drive","company":"CBRE","city":"Clifton","country":"United States","street":"2 Peekay Dr","address":"2 Peekay Dr 07014 Clifton USA"}},{"type":"Feature","geometry":{"type":"Point","coordinates":[-87.6327993,41.8859286]},"properties":{"name":"200 N. LaSalle","company":"CenturyLink","city":"Chicago","country":"United States","street":"200 N LaSalle St","address":"200 N LaSalle St 60601 Chicago United States"}},{"type":"Feature","geometry":{"type":"Point","coordinates":[-118.3863556,33.9176631]},"properties":{"name":"200 North Nash Street","company":"Digital Realty Trust","city":"Street","country":"United States","street":"200 North Nash","address":"200 North Nash Street CA 90245 El Segundo United States"}},{"type":"Feature","geometry":{"type":"Point","coordinates":[-98.2313816,26.2019209]},"properties":{"name":"200 South 10th Street","company":"CBRE","city":"McAllen","country":"United States","street":"200 South 10th Street","address":"200 South 10th Street 78501 McAllen United States"}},{"type":"Feature","geometry":{"type":"Point","coordinates":[-80.1900581,25.7733112]},"properties":{"name":"200 Technology Center","company":"Transwestern","city":"Miami","country":"United States","street":"200 SE 1st Street","address":"200 SE 1st Street 33131 Miami United States"}},{"type":"Feature","geometry":{"type":"Point","coordinates":[-75.0010139,40.1162896]},"properties":{"name":"2000 Kubach Road","company":"Mapletree Redwood Data Centre Trust (MRDCT)","city":"Philadelphia","country":"United States","street":"2000 Kubach Rd","address":"2000 Kubach Rd 19116 Philadelphia USA"}},{"type":"Feature","geometry":{"type":"Point","coordinates":[-122.3388835,47.6143474]},"properties":{"name":"2001 Sixth Avenue","company":"Digital Realty Trust","city":"Seattle","country":"United States","street":"2001 Sixth Avenue","address":"2001 Sixth Avenue 98121 Seattle United States"}},{"type":"Feature","geometry":{"type":"Point","coordinates":[-111.9009904,33.3423111]},"properties":{"name":"2010 East Centennial Circle","company":"Digital Realty Trust","city":"Tempe","country":"United States","street":"2010 East Centennial Circle","address":"2010 East Centennial Circle 85280 Tempe United States"}},{"type":"Feature","geometry":{"type":"Point","coordinates":[-96.7946253,32.7837146]},"properties":{"name":"2020 Live Oak","company":"MCFMAX","city":"Dallas","country":"United States","street":"2020 Live Oak","address":"2020 Live Oak 75201 Dallas United States"}},{"type":"Feature","geometry":{"type":"Point","coordinates":[-121.9409855,37.3435219]},"properties":{"name":"2045 & 2055 LaFayette Street","company":"Digital Realty Trust","city":"Santa","country":"United States","street":"2045 & 2055 LaFayette Street","address":"2045 & 2055 LaFayette Street 90210 Santa Clara United States"}},{"type":"Feature","geometry":{"type":"Point","coordinates":[-121.7510763,37.1972758]},"properties":{"name":"2050 Martin Avenue","company":"Bay Area Internet Services (BAIS)","city":"States","country":"United States","street":"Silicon Valley Silicon Valley United","address":"Silicon Valley Silicon Valley United States"}},{"type":"Feature","geometry":{"type":"Point","coordinates":[-111.8993275,33.3445472]},"properties":{"name":"2055 E Technology Circle","company":"Digital Realty Trust","city":"Tempe","country":"United States","street":"2055 E Technology Circle","address":"2055 E Technology Circle 85284 Tempe United States"}},{"type":"Feature","geometry":{"type":"Point","coordinates":[-86.7825585,36.1551458]},"properties":{"name":"209 10th Ave South","company":"Zayo Group LLC","city":"Nashville","country":"United States","street":"209 10th Ave South","address":"209 10th Ave South 37203 Nashville United States"}},{"type":"Feature","geometry":{"type":"Point","coordinates":[-90.1972207,38.6291248]},"properties":{"name":"210 North Tucker","company":"Netrality","city":"St.","country":"United States","street":"210 N Tucker Blvd","address":"210 N Tucker Blvd 63101 St. Louis USA"}},{"type":"Feature","geometry":{"type":"Point","coordinates":[-77.4122044,39.0247523]},"properties":{"name":"21110 Ridgetop Circle","company":"Digital Realty Trust","city":"Circle","country":"United States","street":"21110 Ridgetop","address":"21110 Ridgetop Circle VA Sterling United States"}},{"type":"Feature","geometry":{"type":"Point","coordinates":[-111.8866379,33.2748973]},"properties":{"name":"2121 S. Price Road","company":"Digital Realty Trust","city":"Road","country":"United States","street":"2121 S. Price","address":"2121 S. Price Road AZ 85286 Chandler United States"}},{"type":"Feature","geometry":{"type":"Point","coordinates":[-0.011758099999999999,51.5006208]},"properties":{"name":"215 Marsh Wall","company":"Digital Realty Trust","city":"London","country":"United Kingdom","street":"Memaco House, Meridian Gate, 215 Marsh Wall E14 9FJ","address":"Memaco House, Meridian Gate, 215 Marsh Wall E14 9FJ London United Kingdom"}},{"type":"Feature","geometry":{"type":"Point","coordinates":[-77.4515166,39.0210198]},"properties":{"name":"21551 Beaumeade Cir","company":"Digital Realty Trust","city":"Ashburn","country":"United States","street":"21551 Beaumeade Cir","address":"21551 Beaumeade Cir 20147 Ashburn United States"}},{"type":"Feature","geometry":{"type":"Point","coordinates":[-77.4527198,39.021730100000006]},"properties":{"name":"21561-21571 Beaumeade Cir","company":"Digital Realty Trust","city":"Ashburn","country":"United States","street":"21561-21571 Beaumeade Cir","address":"21561-21571 Beaumeade Cir 20147 Ashburn United States"}},{"type":"Feature","geometry":{"type":"Point","coordinates":[-87.6344989,41.8784309]},"properties":{"name":"216 West Jackson Boulevard","company":"ANET Internet Solutions","city":"Chicago","country":"United States","street":"216 West Jackson Boulevard","address":"216 West Jackson Boulevard 60606 Chicago United States"}},{"type":"Feature","geometry":{"type":"Point","coordinates":[-77.465788,39.0175305]},"properties":{"name":"21625 Gresham Drive","company":"Digital Realty Trust","city":"Ashburn","country":"United States","street":"21625 Gresham Dr","address":"21625 Gresham Dr 20147 Ashburn USA"}},{"type":"Feature","geometry":{"type":"Point","coordinates":[-77.4816809,39.0156248]},"properties":{"name":"21635 Red Rum Dr","company":"Zayo Group LLC","city":"Ashburn","country":"United States","street":"21635 Red Rum Dr","address":"21635 Red Rum Dr 20147 Ashburn USA"}},{"type":"Feature","geometry":{"type":"Point","coordinates":[-77.4671562,39.0154586]},"properties":{"name":"21745 Sir Timothy Drive","company":"Digital Realty Trust","city":"Ashburn","country":"United States","street":"21745 Sir Timothy Drive","address":"21745 Sir Timothy Drive 20147 Ashburn USA"}},{"type":"Feature","geometry":{"type":"Point","coordinates":[-87.9595107,41.9973883]},"properties":{"name":"2200 Busse Road","company":"Digital Realty Trust","city":"Elk","country":"United States","street":"2200 Busse Rd","address":"2200 Busse Rd 60007-6020 Elk Grove Village USA"}},{"type":"Feature","geometry":{"type":"Point","coordinates":[-121.941613,37.3626278]},"properties":{"name":"2220 De La Cruz Boulevard","company":"Digital Realty Trust","city":"Santa","country":"United States","street":"2220 De La Cruz Blvd","address":"2220 De La Cruz Blvd 95050 Santa Clara USA"}},{"type":"Feature","geometry":{"type":"Point","coordinates":[-118.3846185,33.915514]},"properties":{"name":"2260 East El Segundo Blvd","company":"Digital Realty Trust","city":"Segundo","country":"United States","street":"2260 East El Segundo Boulevard","address":"2260 East El Segundo Boulevard 90245 El Segundo United States"}},{"type":"Feature","geometry":{"type":"Point","coordinates":[-0.011065,51.4998493]},"properties":{"name":"227 Marsh Wall","company":"Digital Realty Trust","city":"London","country":"United Kingdom","street":"Sovereign House, 227 Marsh Wall E14 9SD","address":"Sovereign House, 227 Marsh Wall E14 9SD London United Kingdom"}},{"type":"Feature","geometry":{"type":"Point","coordinates":[-77.4238278,38.9843956]},"properties":{"name":"22810 International Dr","company":"Cyxtera","city":"Sterling","country":"United States","street":"22810 International Dr","address":"22810 International Dr 20166 Sterling USA"}},{"type":"Feature","geometry":{"type":"Point","coordinates":[-77.4239243,38.9835026]},"properties":{"name":"22860 International Drive","company":"Cyxtera","city":"Drive","country":"United States","street":"22860 International","address":"22860 International Drive VA 20166 Sterling United States"}},{"type":"Feature","geometry":{"type":"Point","coordinates":[-87.9577476,41.9943723]},"properties":{"name":"2299 Busse Road","company":"Digital Realty Trust","city":"Elk","country":"United States","street":"2299 Busse Rd","address":"2299 Busse Rd 60007 Elk Grove Village USA"}},{"type":"Feature","geometry":{"type":"Point","coordinates":[-77.444793,38.9809622]},"properties":{"name":"22995 Wilder Court","company":"Cyxtera","city":"Court","country":"United States","street":"22995 Wilder","address":"22995 Wilder Court VA 20166 Sterling United States"}},{"type":"Feature","geometry":{"type":"Point","coordinates":[-80.3432043,25.7954708]},"properties":{"name":"2300 NW 89th Pl","company":"Digital Realty Trust","city":"Miami","country":"United States","street":"2300 NW 89th Pl Miami United States","address":"2300 NW 89th Pl Miami United States"}},{"type":"Feature","geometry":{"type":"Point","coordinates":[-96.7941837,32.7873122]},"properties":{"name":"2323 Bryan Street","company":"Digital Realty Trust","city":"Street","country":"United States","street":"2323 Bryan","address":"2323 Bryan Street TX 75201 Dallas United States"}},{"type":"Feature","geometry":{"type":"Point","coordinates":[-121.8893309,37.4039565]},"properties":{"name":"2334 Lundy Place","company":"Digital Realty Trust","city":"Lundy","country":"United States","street":"2334 Lundy Place San Jose United States","address":"2334 Lundy Place San Jose United States"}},{"type":"Feature","geometry":{"type":"Point","coordinates":[153.0246005,-27.4636983]},"properties":{"name":"24 Little Edward","company":"Over the Wire Pty. Ltd.","city":"Brisbane","country":"Australia","street":"24 Upper Edward St., Spring Hill","address":"24 Upper Edward St., Spring Hill 4001 Brisbane Australia"}},{"type":"Feature","geometry":{"type":"Point","coordinates":[-94.5982475,39.0837835]},"properties":{"name":"2401 Holly Kansas City","company":"Wholesale Internet, Inc.","city":"Kansas","country":"United States","street":"2401 Holly St","address":"2401 Holly St 64108 Kansas City United States"}},{"type":"Feature","geometry":{"type":"Point","coordinates":[-121.96945809999998,37.3718854]},"properties":{"name":"2401 Walsh Street","company":"Digital Realty Trust","city":"Walsh","country":"United States","street":"2401 Walsh Street Santa Clara United States","address":"2401 Walsh Street Santa Clara United States"}},{"type":"Feature","geometry":{"type":"Point","coordinates":[-121.96988409999999,37.3703658]},"properties":{"name":"2403 Walsh Street","company":"Digital Realty Trust","city":"Walsh","country":"United States","street":"2403 Walsh Street Santa Clara United States","address":"2403 Walsh Street Santa Clara United States"}},{"type":"Feature","geometry":{"type":"Point","coordinates":[-96.8554567,32.9780296]},"properties":{"name":"2440 Marsh Lane","company":"Digital Realty Trust","city":"Lane","country":"United States","street":"2440 Marsh","address":"2440 Marsh Lane TX 75006 Carrollton United States"}},{"type":"Feature","geometry":{"type":"Point","coordinates":[138.6056276,-34.923365]},"properties":{"name":"247 Pulteney Street","company":"Colocity Pty Ltd","city":"Adelaide","country":"Australia","street":"247 Pulteney Street","address":"247 Pulteney Street 5000 Adelaide Australia"}},{"type":"Feature","geometry":{"type":"Point","coordinates":[-84.3904605,33.760352]},"properties":{"name":"250 Williams Atlanta Data Center","company":"Carter Validus Mission Critical REIT","city":"Atlanta","country":"United States","street":"250 Williams St NW","address":"250 Williams St NW 30303 Atlanta USA"}},{"type":"Feature","geometry":{"type":"Point","coordinates":[-84.3906499,33.7616391]},"properties":{"name":"250 Williams Street NW","company":"Digital Realty Trust","city":"Atlanta","country":"United States","street":"Williams St NW 250","address":"Williams St NW 250 30303 Atlanta United States"}},{"type":"Feature","geometry":{"type":"Point","coordinates":[-77.3802967,38.955581]},"properties":{"name":"251 Exchange Place","company":"Lincoln Rackhouse","city":"Herndon","country":"United States","street":"251 Exchange Pl","address":"251 Exchange Pl 20170-4822 Herndon USA"}},{"type":"Feature","geometry":{"type":"Point","coordinates":[-90.483647,41.5508188]},"properties":{"name":"2701 Devils Glen Road","company":"ColoHub LLC","city":"Bettendorf","country":"United States","street":"2701 Devils Glen Road","address":"2701 Devils Glen Road 52722 Bettendorf United States"}},{"type":"Feature","geometry":{"type":"Point","coordinates":[-122.3917665,37.7825848]},"properties":{"name":"274 Brannan Street","company":"The Swig Company","city":"San","country":"United States","street":"274 Brannan Street","address":"274 Brannan Street 94107 San Francisco United States"}},{"type":"Feature","geometry":{"type":"Point","coordinates":[-84.1985674,33.9547817]},"properties":{"name":"2775 Northwoods Parkway","company":"Mapletree Redwood Data Centre Trust (MRDCT)","city":"Norcross","country":"United States","street":"2775 Northwoods Pkwy","address":"2775 Northwoods Pkwy 30071-1533 Norcross USA"}},{"type":"Feature","geometry":{"type":"Point","coordinates":[-121.9503979,37.3716646]},"properties":{"name":"2805 Lafayette Street","company":"Digital Realty Trust","city":"Santa","country":"United States","street":"2805 Lafayette Street","address":"2805 Lafayette Street 95050 Santa Clara United States"}},{"type":"Feature","geometry":{"type":"Point","coordinates":[-121.9736589,37.3725693]},"properties":{"name":"2820 Northwestern Parkway","company":"Digital Realty Trust","city":"Pkwy","country":"United States","street":"2820 Northwestern","address":"2820 Northwestern Pkwy CA 95051 Santa Clara United States"}},{"type":"Feature","geometry":{"type":"Point","coordinates":[103.8198,-1.3521]},"properties":{"name":"29A International Parkway","company":"Digital Realty Trust","city":"Singapore","country":"Singapore","street":"29A International Parkway","address":"29A International Parkway 609923 Singapore Singapore"}},{"type":"Feature","geometry":{"type":"Point","coordinates":[-74.4570679,40.5537911]},"properties":{"name":"3 Corporate Place","company":"Digital Realty Trust","city":"Piscataway","country":"United States","street":"3 Corporate Place","address":"3 Corporate Place 08854 Piscataway United States"}},{"type":"Feature","geometry":{"type":"Point","coordinates":[103.9682688,1.37097]},"properties":{"name":"3 Loyang Way","company":"Digital Realty Trust","city":"Singapore","country":"Singapore","street":"3 Loyang Way","address":"3 Loyang Way 508719 Singapore Singapore"}},{"type":"Feature","geometry":{"type":"Point","coordinates":[-0.2608292,51.5347469]},"properties":{"name":"3 Waxlow Road","company":"Options Technology","city":"London","country":"United Kingdom","street":"3 Waxlow Road NW10 7NU","address":"3 Waxlow Road NW10 7NU London United Kingdom"}},{"type":"Feature","geometry":{"type":"Point","coordinates":[-77.010325,38.8829739]},"properties":{"name":"30 E St. SW","company":"Verizon","city":"Washington","country":"United States","street":"30 E St SW","address":"30 E St SW 20024-3224 Washington USA"}},{"type":"Feature","geometry":{"type":"Point","coordinates":[-74.0260271,40.7615218]},"properties":{"name":"300 Boulevard East","company":"Cyxtera","city":"East","country":"United States","street":"300 Boulevard","address":"300 Boulevard East NJ 07086 Weehawken United States"}},{"type":"Feature","geometry":{"type":"Point","coordinates":[-96.6448553,32.7812613]},"properties":{"name":"3000SkylineDallas","company":"CAPSTAR Commercial Real Estate Service","city":"Skyline","country":"United States","street":"3000 Skyline Drive Mesquite United States","address":"3000 Skyline Drive Mesquite United States"}},{"type":"Feature","geometry":{"type":"Point","coordinates":[-121.9484757,37.3764276]},"properties":{"name":"3011 Lafayette Street","company":"Digital Realty Trust","city":"Lafayette","country":"United States","street":"3011 Lafayette Street Santa Clara United States","address":"3011 Lafayette Street Santa Clara United States"}},{"type":"Feature","geometry":{"type":"Point","coordinates":[-118.3427633,34.1993286]},"properties":{"name":"3015 Winona Avenue","company":"Digital Realty Trust","city":"Avenue","country":"United States","street":"3015 Winona","address":"3015 Winona Avenue CA 91504 Burbank United States"}},{"type":"Feature","geometry":{"type":"Point","coordinates":[-121.2725216,38.5914368]},"properties":{"name":"3065 Gold Camp Drive","company":"Carter Validus Mission Critical REIT","city":"Rancho","country":"United States","street":"3065 Gold Camp Drive","address":"3065 Gold Camp Drive 95670 Rancho Cordova United States"}},{"type":"Feature","geometry":{"type":"Point","coordinates":[-121.9541277,37.3780464]},"properties":{"name":"3080 Raymond Street","company":"Digital Realty Trust","city":"Street","country":"United States","street":"3080 Raymond","address":"3080 Raymond Street CA 95054 Santa Clara United States"}},{"type":"Feature","geometry":{"type":"Point","coordinates":[-0.1008148,51.5235754]},"properties":{"name":"31 Great Sutton Street","company":"Volta","city":"London","country":"United Kingdom","street":"36-43 Great Sutton Street EC1V 0AB","address":"36-43 Great Sutton Street EC1V 0AB London United Kingdom"}},{"type":"Feature","geometry":{"type":"Point","coordinates":[-121.9580895,37.3782786]},"properties":{"name":"3105 Alfred Street","company":"Digital Realty Trust","city":"Santa","country":"United States","street":"3105 Alfred Street","address":"3105 Alfred Street 95054 Santa Clara United States"}},{"type":"Feature","geometry":{"type":"Point","coordinates":[-112.075012,33.484294]},"properties":{"name":"3110 N. Central Ave.","company":"Zayo Group LLC","city":"Phoenix","country":"United States","street":"3110 N Central Ave","address":"3110 N Central Ave 85012 Phoenix USA"}},{"type":"Feature","geometry":{"type":"Point","coordinates":[-112.075012,33.484294]},"properties":{"name":"3110 North Central Avenue","company":"Unknown","city":"Phoenix","country":"United States","street":"3110 North Central Avenue","address":"3110 North Central Avenue 85012 Phoenix United States"}},{"type":"Feature","geometry":{"type":"Point","coordinates":[-74.0044583,40.719928]},"properties":{"name":"32 Avenue of the Americas","company":"Digital Realty Trust","city":"New","country":"United States","street":"32 6th Ave","address":"32 6th Ave 10013-2473 New York USA"}},{"type":"Feature","geometry":{"type":"Point","coordinates":[-121.9586767,37.3775536]},"properties":{"name":"3205 Alfred Street","company":"Digital Realty Trust","city":"Santa","country":"United States","street":"3205 Alfred St","address":"3205 Alfred St 95054 Santa Clara USA"}},{"type":"Feature","geometry":{"type":"Point","coordinates":[-87.9069379,43.0389885]},"properties":{"name":"324 E Wisconsin","company":"Towne Investments","city":"Milwaukee","country":"United States","street":"324 E. Wisconsin Ave","address":"324 E. Wisconsin Ave 53202 Milwaukee United States"}},{"type":"Feature","geometry":{"type":"Point","coordinates":[-74.0075795,40.7268469]},"properties":{"name":"325 Hudson Street","company":"325 Hudson Street","city":"States","country":"United States","street":"325 Hudson Street New York City United","address":"325 Hudson Street New York City United States"}},{"type":"Feature","geometry":{"type":"Point","coordinates":[-74.0075795,40.7268469]},"properties":{"name":"325 Hudson Street","company":"Netrality","city":"New","country":"United States","street":"325 Hudson St","address":"325 Hudson St 10013-1005 New York USA"}},{"type":"Feature","geometry":{"type":"Point","coordinates":[114.27394009999999,22.282061199999998]},"properties":{"name":"33 Chun Choi Street","company":"Digital Realty Trust","city":"Kong","country":"Hong Kong","street":"33 Chun Choi Street, Tseung Kwan O Industrial Estate Hong Kong Hong","address":"33 Chun Choi Street, Tseung Kwan O Industrial Estate Hong Kong Hong Kong"}},{"type":"Feature","geometry":{"type":"Point","coordinates":[-96.6616464,33.0001442]},"properties":{"name":"3300 Essex Drive","company":"Mapletree Redwood Data Centre Trust (MRDCT)","city":"Richardson","country":"United States","street":"3300 Essex Dr","address":"3300 Essex Dr 75082-9708 Richardson USA"}},{"type":"Feature","geometry":{"type":"Point","coordinates":[-122.2905696,47.4950309]},"properties":{"name":"3311 S. 120th","company":"Zayo Group LLC","city":"Tukwila","country":"United States","street":"3311 S 120th Pl","address":"3311 S 120th Pl 98168 Tukwila USA"}},{"type":"Feature","geometry":{"type":"Point","coordinates":[-71.5803148,42.3135391]},"properties":{"name":"34 St. Martin","company":"Lincoln Rackhouse","city":"Marlborough","country":"United States","street":"34 St Martin Dr","address":"34 St Martin Dr 01752-3021 Marlborough USA"}},{"type":"Feature","geometry":{"type":"Point","coordinates":[-71.5803148,42.3135391]},"properties":{"name":"34 St. Martin Drive","company":"RREEF","city":"Marlborough","country":"United States","street":"34 St. Martin Drive","address":"34 St. Martin Drive 01752 Marlborough United States"}},{"type":"Feature","geometry":{"type":"Point","coordinates":[153.0289883,-27.4663496]},"properties":{"name":"344 Queen St","company":"AAPT","city":"Brisbane","country":"Australia","street":"344 Queen St","address":"344 Queen St Brisbane Australia"}},{"type":"Feature","geometry":{"type":"Point","coordinates":[-79.38877459999999,43.6449461]},"properties":{"name":"35 John Street/250 Front Street West","company":"Allied Properties REIT","city":"West","country":"Canada","street":"35 John Street/250 Front Street","address":"35 John Street/250 Front Street West ON Toronto Canada"}},{"type":"Feature","geometry":{"type":"Point","coordinates":[-87.6183798,41.8537537]},"properties":{"name":"350 E Cermak Rd, Chicago","company":"Steadfast Networks","city":"Chicago","country":"United States","street":"350 East Cermak Road","address":"350 East Cermak Road 60623 Chicago United States"}},{"type":"Feature","geometry":{"type":"Point","coordinates":[-87.6183798,41.8537537]},"properties":{"name":"350 E Cermak Rd. Chicago","company":"Digital Realty Trust","city":"Rd.","country":"United States","street":"350 E Cermak","address":"350 E Cermak Rd. IL 60623 Chicago United States"}},{"type":"Feature","geometry":{"type":"Point","coordinates":[-87.6185443,41.8536135]},"properties":{"name":"350 East Cermak, 4th floor","company":"Cyxtera","city":"floor","country":"United States","street":"350 East Cermak, 4th","address":"350 East Cermak, 4th floor IL 60616 Chicago United States"}},{"type":"Feature","geometry":{"type":"Point","coordinates":[-87.6185443,41.8536135]},"properties":{"name":"350 East Cermak, 7th floor","company":"Cyxtera","city":"floor","country":"United States","street":"350 East Cermak, 7th","address":"350 East Cermak, 7th floor IL 60616 Chicago United States"}},{"type":"Feature","geometry":{"type":"Point","coordinates":[-80.0852677,26.3813992]},"properties":{"name":"3500 NW","company":"Real Effects","city":"Boca","country":"United States","street":"3500 NW 2nd Ave","address":"3500 NW 2nd Ave 33431 Boca Raton United States"}},{"type":"Feature","geometry":{"type":"Point","coordinates":[-80.1929625,25.7758419]},"properties":{"name":"36 NE 2nd St","company":"Digital Realty Trust","city":"Miami","country":"United States","street":"36 NE 2nd St FL 33132 Miami United States","address":"36 NE 2nd St FL 33132 Miami United States"}},{"type":"Feature","geometry":{"type":"Point","coordinates":[-80.1929625,25.7758419]},"properties":{"name":"36 NE 2nd St.","company":"Zayo Group LLC","city":"Miami","country":"United States","street":"36 NE 2nd St 33132 Miami","address":"36 NE 2nd St 33132 Miami USA"}},{"type":"Feature","geometry":{"type":"Point","coordinates":[-122.3901367,37.7889917]},"properties":{"name":"360 Spear Street","company":"Digital Realty Trust","city":"San","country":"United States","street":"360 Spear St","address":"360 Spear St 94105-1638 San Francisco USA"}},{"type":"Feature","geometry":{"type":"Point","coordinates":[-73.5650302,45.4995248]},"properties":{"name":"360/GT Montreal","company":"360 Networks","city":"Montreal","country":"Canada","street":"875 St Antoine St","address":"875 St Antoine St Montreal Canada"}},{"type":"Feature","geometry":{"type":"Point","coordinates":[-79.3837855,43.6446627]},"properties":{"name":"360/GT Toronto","company":"360 Networks","city":"Toronto","country":"Canada","street":"151 Front Street W M5J 2N1","address":"151 Front Street W M5J 2N1 Toronto Canada"}},{"type":"Feature","geometry":{"type":"Point","coordinates":[-88.0005356,41.8458541]},"properties":{"name":"360TCS","company":"360TCS","city":"Lombard","country":"United States","street":"360 E. 22nd St.","address":"360 E. 22nd St. 60148 Lombard United States"}},{"type":"Feature","geometry":{"type":"Point","coordinates":[-122.3904691,37.788731]},"properties":{"name":"365 Main Street","company":"Fastmetrics","city":"San","country":"United States","street":"365 Main Street","address":"365 Main Street 94105 San Francisco United States"}},{"type":"Feature","geometry":{"type":"Point","coordinates":[-122.3904691,37.788731]},"properties":{"name":"365 Main Street","company":"Digital Realty Trust","city":"San","country":"United States","street":"365 Main Street","address":"365 Main Street 94105 San Francisco United States"}},{"type":"Feature","geometry":{"type":"Point","coordinates":[-74.4518191,40.5395481]},"properties":{"name":"365 S Randolphville","company":"Digital Realty Trust","city":"Piscataway","country":"United States","street":"365 S Randolphville","address":"365 S Randolphville 08854 Piscataway United States"}},{"type":"Feature","geometry":{"type":"Point","coordinates":[-74.4592262,40.5530487]},"properties":{"name":"365 S Randolphville Rd","company":"Cyxtera","city":"Piscataway","country":"United States","street":"365 S Randolphville Rd","address":"365 S Randolphville Rd 08854 Piscataway Township USA"}},{"type":"Feature","geometry":{"type":"Point","coordinates":[-121.9536393,37.378838099999996]},"properties":{"name":"3705 Raymond Street","company":"Syptec","city":"San","country":"United States","street":"3705 Raymond Street","address":"3705 Raymond Street 95054 San Jose United States"}},{"type":"Feature","geometry":{"type":"Point","coordinates":[-79.3236161,43.8382592]},"properties":{"name":"371 Gough Road","company":"Digital Realty Trust","city":"Markham","country":"Canada","street":"371 Gough Road","address":"371 Gough Road Markham Canada"}},{"type":"Feature","geometry":{"type":"Point","coordinates":[-84.5812784,33.7440519]},"properties":{"name":"375 Riverside Parkway","company":"Cyxtera","city":"Parkway","country":"United States","street":"375 Riverside","address":"375 Riverside Parkway GA 30122 Lithia Springs United States"}},{"type":"Feature","geometry":{"type":"Point","coordinates":[-84.5812784,33.7440519]},"properties":{"name":"375 Riverside Parkway","company":"Digital Realty Trust","city":"Lithia","country":"United States","street":"Riverside Parkway 375","address":"Riverside Parkway 375 30122 Lithia Springs United States"}},{"type":"Feature","geometry":{"type":"Point","coordinates":[144.9615731,-37.8188619]},"properties":{"name":"376 Flinders","company":"AAPT","city":"Melbourne","country":"Australia","street":"376 Flinders","address":"376 Flinders Melbourne Australia"}},{"type":"Feature","geometry":{"type":"Point","coordinates":[-79.7146014,43.5270479]},"properties":{"name":"3z Canada YYZ2","company":"3z Canada","city":"Sladeview","country":"Canada","street":"3995 Sladeview Cres L5L 5X9 Mississauga","address":"3995 Sladeview Cres L5L 5X9 Mississauga Canada"}},{"type":"Feature","geometry":{"type":"Point","coordinates":[-84.3266222,33.9266558]},"properties":{"name":"40 Perimeter Center East","company":"Lincoln Rackhouse","city":"Atlanta","country":"United States","street":"40 Perimeter Center E","address":"40 Perimeter Center E 30346 Atlanta USA"}},{"type":"Feature","geometry":{"type":"Point","coordinates":[-96.7985002,32.7783206]},"properties":{"name":"400 S Akard Street","company":"Digital Realty Trust","city":"St.","country":"United States","street":"400 S Akard","address":"400 S Akard St. TX 75202 Dallas United States"}},{"type":"Feature","geometry":{"type":"Point","coordinates":[-96.7896799,32.7674029]},"properties":{"name":"400 S. Akard","company":"Freeman Group","city":"States","country":"United States","street":"400 S. Akard Dallas United","address":"400 S. Akard Dallas United States"}},{"type":"Feature","geometry":{"type":"Point","coordinates":[-106.6517143,35.0861889]},"properties":{"name":"400 Tijeras Ave NW","company":"Cyxtera","city":"Albuquerque","country":"United States","street":"400 Tijeras Ave NW","address":"400 Tijeras Ave NW 87102 Albuquerque USA"}},{"type":"Feature","geometry":{"type":"Point","coordinates":[-110.9073736,32.2362541]},"properties":{"name":"4003 East Speedway Boulevard","company":"Unknown","city":"Tucson","country":"United States","street":"4003 East Speedway Boulevard","address":"4003 East Speedway Boulevard 85712 Tucson United States"}},{"type":"Feature","geometry":{"type":"Point","coordinates":[-75.1621643,39.9597686]},"properties":{"name":"401 North Broad","company":"Netrality","city":"Philadelphia","country":"United States","street":"401 N Broad St","address":"401 N Broad St 19108 Philadelphia USA"}},{"type":"Feature","geometry":{"type":"Point","coordinates":[-86.7938767,36.0243006]},"properties":{"name":"402 Franklin Road","company":"Mapletree Redwood Data Centre Trust (MRDCT)","city":"Brentwood","country":"United States","street":"402 Franklin Rd","address":"402 Franklin Rd 37027 Brentwood USA"}},{"type":"Feature","geometry":{"type":"Point","coordinates":[-96.843649,33.0213678]},"properties":{"name":"4025 Midway Rd","company":"Digital Realty Trust","city":"Carrollton","country":"United States","street":"4025 Midway","address":"4025 Midway Rd TX 75007 Carrollton United States"}},{"type":"Feature","geometry":{"type":"Point","coordinates":[-77.4741596,38.909497]},"properties":{"name":"4030 Lafayette Center Drive","company":"Digital Realty Trust","city":"Chantilly","country":"United States","street":"4030 Lafayette Center Drive","address":"4030 Lafayette Center Drive 20151 Chantilly United States"}},{"type":"Feature","geometry":{"type":"Point","coordinates":[-77.4749896,38.9092485]},"properties":{"name":"4040 Lafayette Center","company":"Digital Realty Trust","city":"Chantilly","country":"United States","street":"4040 Lafayette Center","address":"4040 Lafayette Center 20151 Chantilly United States"}},{"type":"Feature","geometry":{"type":"Point","coordinates":[-77.470297,38.9066377]},"properties":{"name":"4050 Lafayette Center Drive","company":"Digital Realty Trust","city":"Chantilly","country":"United States","street":"4050 Lafayette Center Drive","address":"4050 Lafayette Center Drive 20151 Chantilly United States"}},{"type":"Feature","geometry":{"type":"Point","coordinates":[-118.3454591,33.8582237]},"properties":{"name":"4100 W 190th St","company":"Unclaimed","city":"Torrance","country":"United States","street":"4100 W 190th St","address":"4100 W 190th St 90504 Torrance USA"}},{"type":"Feature","geometry":{"type":"Point","coordinates":[-118.2529514,34.0508412]},"properties":{"name":"420 South Grand Ave.","company":"Brookfield Infrastructure Partners LP","city":"Los","country":"United States","street":"420 S Grand Ave","address":"420 S Grand Ave 90071-1902 Los Angeles USA"}},{"type":"Feature","geometry":{"type":"Point","coordinates":[-81.6557,30.3322]},"properties":{"name":"421 West Church Street","company":"421 West Church Street","city":"Jacksonville","country":"United States","street":"32202 Jacksonville United States","address":"32202 Jacksonville United States 19043556474"}},{"type":"Feature","geometry":{"type":"Point","coordinates":[-96.7803184,32.7987019]},"properties":{"name":"4211 Bryan St.","company":"Brookfield Infrastructure Partners LP","city":"Dallas","country":"United States","street":"4211 Bryan St","address":"4211 Bryan St 75204 Dallas USA"}},{"type":"Feature","geometry":{"type":"Point","coordinates":[-96.7786518,32.7991046]},"properties":{"name":"4316 Bryan","company":"XC Networks","city":"Dallas","country":"United States","street":"4316 Bryan St","address":"4316 Bryan St 75204 Dallas USA"}},{"type":"Feature","geometry":{"type":"Point","coordinates":[144.934811,-37.8327049]},"properties":{"name":"437 Williamstown Road","company":"Interactive","city":"Melbourne","country":"Australia","street":"437 Williamstown Road Port","address":"437 Williamstown Road Port Melbourne Australia"}},{"type":"Feature","geometry":{"type":"Point","coordinates":[-77.4856628,39.0050186]},"properties":{"name":"43790 Devin Shafron Dr","company":"Digital Realty Trust","city":"Ashburn","country":"United States","street":"43790 Devin Shafron Dr","address":"43790 Devin Shafron Dr 20147 Ashburn United States"}},{"type":"Feature","geometry":{"type":"Point","coordinates":[-77.4870935,39.0033364]},"properties":{"name":"43791 Devin Shafron Dr","company":"Digital Realty Trust","city":"Ashburn","country":"United States","street":"43791 Devin Shafron Dr","address":"43791 Devin Shafron Dr 20147 Ashburn United States"}},{"type":"Feature","geometry":{"type":"Point","coordinates":[-77.4843499,39.0043336]},"properties":{"name":"43830 Devin Shafron Dr","company":"Digital Realty Trust","city":"Ashburn","country":"United States","street":"43830 Devin Shafron Dr","address":"43830 Devin Shafron Dr 20147 Ashburn United States"}},{"type":"Feature","geometry":{"type":"Point","coordinates":[-77.4833469,39.0020233]},"properties":{"name":"43881 Devin Shafron Dr","company":"Digital Realty Trust","city":"Ashburn","country":"United States","street":"43881 Devin Shafron Dr","address":"43881 Devin Shafron Dr 20147 Ashburn United States"}},{"type":"Feature","geometry":{"type":"Point","coordinates":[-77.4816721,39.003136]},"properties":{"name":"43915 Devin Shafron Dr","company":"Digital Realty Trust","city":"Ashburn","country":"United States","street":"43915 Devin Shafron Dr","address":"43915 Devin Shafron Dr 20147 Ashburn United States"}},{"type":"Feature","geometry":{"type":"Point","coordinates":[-77.47842949999999,39.0020063]},"properties":{"name":"43940 Digital Loudoun Plaza","company":"Digital Realty Trust","city":"Ashburn","country":"United States","street":"43940 Digital Loudoun Plaza","address":"43940 Digital Loudoun Plaza 20147 Ashburn United States"}},{"type":"Feature","geometry":{"type":"Point","coordinates":[-77.4788052,38.999798299999995]},"properties":{"name":"44060 Digital Loudoun Plaza","company":"Digital Realty Trust","city":"Ashburn","country":"United States","street":"44060 Digital Loudoun Plz","address":"44060 Digital Loudoun Plz 20147 Ashburn United States"}},{"type":"Feature","geometry":{"type":"Point","coordinates":[-77.4774096,39.0011412]},"properties":{"name":"44100 Digital Loudoun Plaza","company":"Digital Realty Trust","city":"Ashburn","country":"United States","street":"44100 Digital Loudoun Plz","address":"44100 Digital Loudoun Plz 20147 Ashburn United States"}},{"type":"Feature","geometry":{"type":"Point","coordinates":[-77.4635733,39.0210265]},"properties":{"name":"44461 Chilum Place","company":"Digital Realty Trust","city":"Ashburn","country":"United States","street":"44461 Chilum Pl","address":"44461 Chilum Pl 20147 Ashburn USA"}},{"type":"Feature","geometry":{"type":"Point","coordinates":[-77.4874,39.0438]},"properties":{"name":"44470 Chillum Place","company":"Digital Realty Trust","city":"Ashburn","country":"United States","street":"44470 Chillum Place","address":"44470 Chillum Place 20147 Ashburn United States"}},{"type":"Feature","geometry":{"type":"Point","coordinates":[-77.4625307,39.0178959]},"properties":{"name":"44480 Hastings Drive","company":"Digital Realty Trust","city":"Ashburn","country":"United States","street":"44480 Hastings Dr","address":"44480 Hastings Dr 20147 Ashburn USA"}},{"type":"Feature","geometry":{"type":"Point","coordinates":[-77.4625307,39.0178959]},"properties":{"name":"44480 Hastings Road","company":"Digital Realty Trust","city":"Ashburn","country":"United States","street":"44480 Hastings Dr","address":"44480 Hastings Dr 20147 Ashburn USA"}},{"type":"Feature","geometry":{"type":"Point","coordinates":[-77.46005,39.021081]},"properties":{"name":"44490 Chilum Place","company":"Digital Realty Trust","city":"Ashburn","country":"United States","street":"44490 Chilum Pl","address":"44490 Chilum Pl 20147 Ashburn USA"}},{"type":"Feature","geometry":{"type":"Point","coordinates":[-93.4639539,44.7807426]},"properties":{"name":"4450 Dean Lakes Blvd","company":"Cyxtera","city":"Shakopee","country":"United States","street":"4450 Dean Lakes Blvd","address":"4450 Dean Lakes Blvd 55379 Shakopee USA"}},{"type":"Feature","geometry":{"type":"Point","coordinates":[-77.4600526,39.0197603]},"properties":{"name":"44520 Hastings Drive","company":"Digital Realty Trust","city":"Ashburn","country":"United States","street":"44520 Hastings Dr","address":"44520 Hastings Dr 20147-6037 Ashburn USA"}},{"type":"Feature","geometry":{"type":"Point","coordinates":[138.6014573,-34.9260443]},"properties":{"name":"45 Pirie Street","company":"AAPT","city":"Adelaide","country":"Australia","street":"45 Pirie Street, Level 1","address":"45 Pirie Street, Level 1 5000 Adelaide Australia"}},{"type":"Feature","geometry":{"type":"Point","coordinates":[-77.4105834,39.0233767]},"properties":{"name":"45845 Nokes Blvd","company":"Cyxtera","city":"Sterling","country":"United States","street":"45845 Nokes Blvd","address":"45845 Nokes Blvd 20166-6574 Sterling USA"}},{"type":"Feature","geometry":{"type":"Point","coordinates":[-77.4132159,39.0232986]},"properties":{"name":"45901 Nokes Blvd","company":"Digital Realty Trust","city":"Sterling","country":"United States","street":"45901 Nokes Blvd","address":"45901 Nokes Blvd 20166-6516 Sterling USA"}},{"type":"Feature","geometry":{"type":"Point","coordinates":[-118.4410135,33.9816156]},"properties":{"name":"4640 Admiralty Way","company":"Unclaimed","city":"Marina","country":"United States","street":"4640 Admiralty Way","address":"4640 Admiralty Way 90292 Marina Del Rey USA"}},{"type":"Feature","geometry":{"type":"Point","coordinates":[-121.9809629,37.3976907]},"properties":{"name":"4650 Old Ironsides Drive","company":"Cyxtera","city":"Drive","country":"United States","street":"4650 Old Ironsides","address":"4650 Old Ironsides Drive CA 95054 Santa Clara United States"}},{"type":"Feature","geometry":{"type":"Point","coordinates":[-85.641845,42.2553182]},"properties":{"name":"4664 Campus Drive","company":"Weidenhammer","city":"Drive","country":"United States","street":"4664 Campus","address":"4664 Campus Drive MI Kalamazoo United States"}},{"type":"Feature","geometry":{"type":"Point","coordinates":[-0.018902,51.496899899999995]},"properties":{"name":"47 Milharbour","company":"Digital Realty Trust","city":"London","country":"United Kingdom","street":"Bonnington House, Millharbour 47 E14 9TR","address":"Bonnington House, Millharbour 47 E14 9TR London United Kingdom"}},{"type":"Feature","geometry":{"type":"Point","coordinates":[-84.3713653,33.8385343]},"properties":{"name":"470 Exchange","company":"470 exchange","city":"Atlanta","country":"United States","street":"470 East Paces Ferry Road","address":"470 East Paces Ferry Road 30327 Atlanta United States"}},{"type":"Feature","geometry":{"type":"Point","coordinates":[-121.9811563,37.3985751]},"properties":{"name":"4700 Old Ironsides Drive","company":"Cyxtera","city":"Drive","country":"United States","street":"4700 Old Ironsides","address":"4700 Old Ironsides Drive CA 95054 Santa Clara United States"}},{"type":"Feature","geometry":{"type":"Point","coordinates":[-96.8245478,32.9331838]},"properties":{"name":"4849 Alpha Road","company":"Digital Realty Trust","city":"Road","country":"United States","street":"4849 Alpha","address":"4849 Alpha Road TX 75214 Dallas United States"}},{"type":"Feature","geometry":{"type":"Point","coordinates":[-119.2947378,47.1866366]},"properties":{"name":"4949 Randolph Rd NE","company":"Cyxtera","city":"Lake","country":"United States","street":"4949 Randolph","address":"4949 Randolph Rd NE 98837 Moses Lake USA"}},{"type":"Feature","geometry":{"type":"Point","coordinates":[-1.2620038,52.3726682]},"properties":{"name":"5 - Rugby","company":"Sentrum","city":"Rugby","country":"United Kingdom","street":"tbc","address":"tbc Rugby United Kingdom"}},{"type":"Feature","geometry":{"type":"Point","coordinates":[103.83480060000001,1.4397153]},"properties":{"name":"50 Yishun Industrial Park A","company":"Nucleus Connet","city":"Singapore","country":"Singapore","street":"50 Yishun Industrial Park A, 3rd floor, Suite 31","address":"50 Yishun Industrial Park A, 3rd floor, Suite 31 768725 Singapore Singapore"}},{"type":"Feature","geometry":{"type":"Point","coordinates":[-97.154332,32.666926]},"properties":{"name":"5000 Bowen","company":"Mapletree Redwood Data Centre Trust (MRDCT)","city":"Arlington","country":"United States","street":"5000 S Bowen Rd","address":"5000 S Bowen Rd 76017-2616 Arlington USA"}},{"type":"Feature","geometry":{"type":"Point","coordinates":[-87.9128954,41.9189911]},"properties":{"name":"505 N Railroad Ave","company":"Digital Realty Trust","city":"Northlake","country":"United States","street":"505 N Railroad Ave","address":"505 N Railroad Ave 60164 Northlake USA"}},{"type":"Feature","geometry":{"type":"Point","coordinates":[-84.3854664,33.7559029]},"properties":{"name":"51 Peachtree Center Ave. NE","company":"Brookfield Infrastructure Partners LP","city":"Ave","country":"United States","street":"51 Peachtree Center","address":"51 Peachtree Center Ave NE 30303-2513 Atlanta USA"}},{"type":"Feature","geometry":{"type":"Point","coordinates":[-121.9658317,37.4073327]},"properties":{"name":"5101 Lafayette St.","company":"Zayo Group LLC","city":"Santa","country":"United States","street":"5101 Lafayette St","address":"5101 Lafayette St 95054-1010 Santa Clara USA"}},{"type":"Feature","geometry":{"type":"Point","coordinates":[-93.2546167,44.971127]},"properties":{"name":"511 Building - Minnesota Technology Center","company":"511 Building","city":"Minneapolis","country":"United States","street":"511 11th Ave S","address":"511 11th Ave S 55415 Minneapolis United States"}},{"type":"Feature","geometry":{"type":"Point","coordinates":[-78.8291431,35.8505281]},"properties":{"name":"5150 McCrimmon Parkway","company":"Mapletree Redwood Data Centre Trust (MRDCT)","city":"Morrisville","country":"United States","street":"5150 McCrimmon Pkwy","address":"5150 McCrimmon Pkwy 27560 Morrisville USA"}},{"type":"Feature","geometry":{"type":"Point","coordinates":[-98.6966277,29.4810538]},"properties":{"name":"5200 Rogers Road","company":"Microsoft","city":"San","country":"United States","street":"5200 Rogers Rd","address":"5200 Rogers Rd 78251 San Antonio USA"}},{"type":"Feature","geometry":{"type":"Point","coordinates":[144.9568668,-37.8177934]},"properties":{"name":"530 Collins","company":"Melbourne Data Centre","city":"Melbourne","country":"Australia","street":"530 Collins St VIC","address":"530 Collins St VIC 3000 Melbourne Australia"}},{"type":"Feature","geometry":{"type":"Point","coordinates":[-74.0351045,40.7276801]},"properties":{"name":"545 Washington Boulevard","company":"Knight Capital Group","city":"Boulevard","country":"United States","street":"545 Washington","address":"545 Washington Boulevard NJ Jersey City United States"}},{"type":"Feature","geometry":{"type":"Point","coordinates":[151.2044601,-33.8649569]},"properties":{"name":"55 Clarence","company":"AAPT","city":"Sydney","country":"Australia","street":"55 Clarence","address":"55 Clarence Sydney Australia"}},{"type":"Feature","geometry":{"type":"Point","coordinates":[-84.3910708,33.7558937]},"properties":{"name":"55 Marietta","company":"Bank Building Limited Partnership","city":"Atlanta","country":"United States","street":"55 Marietta","address":"55 Marietta 30303 Atlanta United States"}},{"type":"Feature","geometry":{"type":"Point","coordinates":[-71.2367515,42.5124361]},"properties":{"name":"55 Middlesex Turnpike","company":"Digital Realty Trust","city":"Turnpike","country":"United States","street":"55 Middlesex","address":"55 Middlesex Turnpike MA 01730 Bedford United States"}},{"type":"Feature","geometry":{"type":"Point","coordinates":[-0.0873306,51.5240825]},"properties":{"name":"55-71 City Rd","company":"Digital Realty Trust","city":"London","country":"United Kingdom","street":"City Road 55 EC1Y 1HQ","address":"City Road 55 EC1Y 1HQ London United Kingdom"}},{"type":"Feature","geometry":{"type":"Point","coordinates":[-123.12942400000001,49.2909307]},"properties":{"name":"555 W Hastings St","company":"Cyxtera","city":"Vancouver","country":"Canada","street":"555 W Hastings St V6E","address":"555 W Hastings St V6E Vancouver Canada"}},{"type":"Feature","geometry":{"type":"Point","coordinates":[-63.5792809,44.644823]},"properties":{"name":"5562 Sackville St","company":"Internetworking Atlantic Inc. (IAI)","city":"Sackville","country":"Canada","street":"5562 Sackville St. B3J 1L1 Halifax","address":"5562 Sackville St. B3J 1L1 Halifax Canada"}},{"type":"Feature","geometry":{"type":"Point","coordinates":[-84.3930625,33.7574153]},"properties":{"name":"56 Marietta Street","company":"Digital Realty Trust","city":"Atlanta","country":"United States","street":"56 Marietta St NW","address":"56 Marietta St NW 30303 Atlanta USA"}},{"type":"Feature","geometry":{"type":"Point","coordinates":[-83.1340962,40.0931996]},"properties":{"name":"565 Metro Place South","company":"Metro Datacenter","city":"States","country":"United States","street":"565 Metro Place South Dublin United","address":"565 Metro Place South Dublin United States"}},{"type":"Feature","geometry":{"type":"Point","coordinates":[-90.381426,38.772035]},"properties":{"name":"587 McDonnell Blvd.","company":"Cyxtera","city":"Blvd.","country":"United States","street":"587 McDonnell","address":"587 McDonnell Blvd. MO 63042 Hazelwood United States"}},{"type":"Feature","geometry":{"type":"Point","coordinates":[2.3410779,48.9280589]},"properties":{"name":"6 Boulevard de la Liberation","company":"Ad Valem Technologies","city":"Saint-Denis","country":"France","street":"6 Boulevard de la Liberation","address":"6 Boulevard de la Liberation Saint-Denis France"}},{"type":"Feature","geometry":{"type":"Point","coordinates":[103.9515196,1.3324724]},"properties":{"name":"6 Changi South Lane","company":"Mapletree Logistics Trust (MLT)","city":"Singapore","country":"Singapore","street":"6 Changi S Ln","address":"6 Changi S Ln 486400 Singapore Singapore"}},{"type":"Feature","geometry":{"type":"Point","coordinates":[103.9515196,1.3324724]},"properties":{"name":"6 Changi South Lane","company":"Singapore Technologies Engineering (ST Engineering)","city":"Singapore","country":"Singapore","street":"6 Changi South Lane","address":"6 Changi South Lane Singapore Singapore"}},{"type":"Feature","geometry":{"type":"Point","coordinates":[103.9515196,1.3324724]},"properties":{"name":"6 Changi South Lane","company":"Mapletree Logistics Trust (MLT)","city":"Singapore","country":"Singapore","street":"6 Changi S Ln","address":"6 Changi S Ln 486400 Singapore Singapore"}},{"type":"Feature","geometry":{"type":"Point","coordinates":[-0.0183455,51.4949486]},"properties":{"name":"6 Greenwich View","company":"Cyxtera","city":"London","country":"United Kingdom","street":"6 Greenwich View E14 9NN","address":"6 Greenwich View E14 9NN London UK"}},{"type":"Feature","geometry":{"type":"Point","coordinates":[-74.0083059,40.717729]},"properties":{"name":"60 Hudson Street","company":"Digital Realty Trust","city":"New","country":"United States","street":"60 Hudson St, Floor 5","address":"60 Hudson St, Floor 5 10013 New York USA"}},{"type":"Feature","geometry":{"type":"Point","coordinates":[-73.8617906,41.1270828]},"properties":{"name":"600 Albany Post Road","company":"Lincoln Rackhouse","city":"Briarcliff","country":"United States","street":"600 Albany Post Rd","address":"600 Albany Post Rd 10510-2427 Briarcliff Manor USA"}},{"type":"Feature","geometry":{"type":"Point","coordinates":[-87.6299404,41.8743061]},"properties":{"name":"600 S Federal St.","company":"Zayo Group LLC","city":"Chicago","country":"United States","street":"600 S Federal St","address":"600 S Federal St 60605 Chicago USA"}},{"type":"Feature","geometry":{"type":"Point","coordinates":[-71.0613892,42.355855]},"properties":{"name":"600 Winter St","company":"Digital Realty Trust","city":"Boston","country":"United States","street":"600 Winter","address":"600 Winter St MA 02451 Boston United States"}},{"type":"Feature","geometry":{"type":"Point","coordinates":[-87.6296115,41.8748705]},"properties":{"name":"600-780 South Federal","company":"Digital Realty Trust","city":"States","country":"United States","street":"600-780 South Federal Chicago United","address":"600-780 South Federal Chicago United States"}},{"type":"Feature","geometry":{"type":"Point","coordinates":[-122.3969124,37.7852622]},"properties":{"name":"611 Folsom St.","company":"Brookfield Infrastructure Partners LP","city":"San","country":"United States","street":"611 Folsom St","address":"611 Folsom St 94107-1304 San Francisco USA"}},{"type":"Feature","geometry":{"type":"Point","coordinates":[-111.9774182,33.4544742]},"properties":{"name":"615 N 48th St","company":"Cyxtera","city":"Phoenix","country":"United States","street":"615 N 48th St","address":"615 N 48th St 85008-6608 Phoenix USA"}},{"type":"Feature","geometry":{"type":"Point","coordinates":[-122.4033554,37.7708073]},"properties":{"name":"650 Townsend St","company":"Virtustream","city":"Francisco","country":"United States","street":"650 Townsend","address":"650 Townsend st CA 94013 San Francisco United States"}},{"type":"Feature","geometry":{"type":"Point","coordinates":[-96.7912464,32.9255998]},"properties":{"name":"6606 LBJ Fwy","company":"Zayo Group LLC","city":"Dallas","country":"United States","street":"6606 Lyndon B Johnson Fwy","address":"6606 Lyndon B Johnson Fwy 75240 Dallas USA"}},{"type":"Feature","geometry":{"type":"Point","coordinates":[-96.8092819,33.0652841]},"properties":{"name":"6715 Pinecrest Drive","company":"Lincoln Rackhouse","city":"Plano","country":"United States","street":"6715 Pinecrest Dr","address":"6715 Pinecrest Dr 75024 Plano USA"}},{"type":"Feature","geometry":{"type":"Point","coordinates":[-104.8479857,39.5917924]},"properties":{"name":"6900 S Peoria St","company":"Zayo Group LLC","city":"Centennial","country":"United States","street":"6900 S Peoria St","address":"6900 S Peoria St 80112-4137 Centennial USA"}},{"type":"Feature","geometry":{"type":"Point","coordinates":[-97.133556,31.555117]},"properties":{"name":"700 Austin Ave","company":"Zayo Group LLC","city":"Waco","country":"United States","street":"700 Austin Ave","address":"700 Austin Ave 76701-2020 Waco USA"}},{"type":"Feature","geometry":{"type":"Point","coordinates":[-80.836893,35.222067]},"properties":{"name":"701 East Trade Street","company":"Lincoln Rackhouse","city":"Charlotte","country":"United States","street":"701 E Trade St","address":"701 E Trade St 28202 Charlotte USA"}},{"type":"Feature","geometry":{"type":"Point","coordinates":[-87.6313841,41.8732565]},"properties":{"name":"701-703 S Lasalle St.","company":"Vinakom","city":"Chicago","country":"United States","street":"701 S Lasalle St.","address":"701 S Lasalle St. 60605 Chicago United States"}},{"type":"Feature","geometry":{"type":"Point","coordinates":[-118.2570292,34.0490066]},"properties":{"name":"707 Wilshire Blvd.","company":"Zayo Group LLC","city":"Los","country":"United States","street":"707 Wilshire Blvd","address":"707 Wilshire Blvd 90017 Los Angeles USA"}},{"type":"Feature","geometry":{"type":"Point","coordinates":[5.3385856,43.3608868]},"properties":{"name":"71 Av André Roussin","company":"Jaguar Network SAS","city":"Marseille","country":"France","street":"71 Av André Roussin","address":"71 Av André Roussin 13321 Marseille France"}},{"type":"Feature","geometry":{"type":"Point","coordinates":[-96.7944346,32.7877426]},"properties":{"name":"717 Leonard Street","company":"Digital Realty Trust","city":"Dallas","country":"United States","street":"Leonard St 717","address":"Leonard St 717 75201 Dallas United States"}},{"type":"Feature","geometry":{"type":"Point","coordinates":[-96.7980423,32.7855324]},"properties":{"name":"717 North Harwood Street","company":"Crown Castle","city":"Dallas","country":"United States","street":"717 N Harwood St","address":"717 N Harwood St 75201 Dallas USA"}},{"type":"Feature","geometry":{"type":"Point","coordinates":[-87.63344,41.8728811]},"properties":{"name":"717 South Wells","company":"Netrality","city":"Chicago","country":"United States","street":"717 S Wells St","address":"717 S Wells St 60607 Chicago USA"}},{"type":"Feature","geometry":{"type":"Point","coordinates":[-115.1470938,36.0597501]},"properties":{"name":"7185 Pollock Drive","company":"Zayo Group LLC","city":"Las","country":"United States","street":"7185 Pollock Dr","address":"7185 Pollock Dr 89119-4415 Las Vegas USA"}},{"type":"Feature","geometry":{"type":"Point","coordinates":[144.7786886,-37.7811401]},"properties":{"name":"72 Radnor Drive","company":"Digital Realty Trust","city":"Melbourne","country":"Australia","street":"Radnor Drive 72","address":"Radnor Drive 72 3023 Melbourne Australia"}},{"type":"Feature","geometry":{"type":"Point","coordinates":[-83.2989121,42.8786004]},"properties":{"name":"720 Second Street","company":"Digital Realty Trust","city":"Oakland","country":"United States","street":"720 Second Street","address":"720 Second Street 94607 Oakland United States"}},{"type":"Feature","geometry":{"type":"Point","coordinates":[-97.766046,30.435985]},"properties":{"name":"7218 McNeil Drive","company":"Zayo Group LLC","city":"Austin","country":"United States","street":"7218 McNeil Dr","address":"7218 McNeil Dr 78729-7617 Austin USA"}},{"type":"Feature","geometry":{"type":"Point","coordinates":[-87.6332523,41.872585699999995]},"properties":{"name":"725 S. Wells Street, Chicago ","company":"Steadfast Networks","city":"Chicago","country":"United States","street":"725 S. Wells St., 8th Floor","address":"725 S. Wells St., 8th Floor 60607 Chicago United States"}},{"type":"Feature","geometry":{"type":"Point","coordinates":[-80.8362756,35.2215231]},"properties":{"name":"731 E Trade St","company":"Digital Realty Trust","city":"Charlotte","country":"United States","street":"731 E Trade","address":"731 E Trade St NC 28202 Charlotte United States"}},{"type":"Feature","geometry":{"type":"Point","coordinates":[-117.1649772,32.8879536]},"properties":{"name":"7337 Trade Street","company":"Mapletree Redwood Data Centre Trust (MRDCT)","city":"San","country":"United States","street":"7337 Trade St","address":"7337 Trade St 92121 San Diego USA"}},{"type":"Feature","geometry":{"type":"Point","coordinates":[-122.8802419,42.331861]},"properties":{"name":"739 Welch Drive","company":"Data Center West","city":"Medford","country":"United States","street":"739 Welch Drive","address":"739 Welch Drive 97501 Medford United States"}},{"type":"Feature","geometry":{"type":"Point","coordinates":[-73.5603026,45.4995579]},"properties":{"name":"740 Notre Dame St West","company":"Zayo Group LLC","city":"Montréal","country":"Canada","street":"740 Rue Notre-Dame Ouest H3C 1J2","address":"740 Rue Notre-Dame Ouest H3C 1J2 Montréal Canada"}},{"type":"Feature","geometry":{"type":"Point","coordinates":[-73.6353188,45.4484629]},"properties":{"name":"740 Notre-Dame West","company":"740 Notre-Dame West","city":"Montreal","country":"Canada","street":"740 Notre-Dame West","address":"740 Notre-Dame West Montreal Canada"}},{"type":"Feature","geometry":{"type":"Point","coordinates":[-97.6949741,30.214974]},"properties":{"name":"7401 E. Ben White Boulevard","company":"Digital Realty Trust","city":"Austin","country":"United States","street":"E Ben White Blvd 7401","address":"E Ben White Blvd 7401 78744 Austin United States"}},{"type":"Feature","geometry":{"type":"Point","coordinates":[-97.6958913,30.2121195]},"properties":{"name":"7500 Metro Center Dr","company":"Digital Realty Trust","city":"Austin","country":"United States","street":"7500 Metro Center Dr","address":"7500 Metro Center Dr 78704 Austin United States"}},{"type":"Feature","geometry":{"type":"Point","coordinates":[-96.8730726,32.8175493]},"properties":{"name":"7505 John W. Carpenter Freeway","company":"CoreSpace","city":"Freeway","country":"United States","street":"7505 John W. Carpenter","address":"7505 John W. Carpenter Freeway TX 75247 Dallas United States"}},{"type":"Feature","geometry":{"type":"Point","coordinates":[-77.5382685,38.7912098]},"properties":{"name":"7505 Mason King Court","company":"Digital Realty Trust","city":"Manassas","country":"United States","street":"7505 Mason King Court","address":"7505 Mason King Court 20109 Manassas United States"}},{"type":"Feature","geometry":{"type":"Point","coordinates":[-105.1192041,39.8826956]},"properties":{"name":"7579 W 103rd Ave","company":"Zayo Group LLC","city":"Westminster","country":"United States","street":"7579 W 103rd Ave","address":"7579 W 103rd Ave 80021-4071 Westminster USA"}},{"type":"Feature","geometry":{"type":"Point","coordinates":[-84.4151054,33.6569799]},"properties":{"name":"760 Doug Davis Dr","company":"Digital Realty Trust","city":"Atlanta","country":"United States","street":"Doug Davis Dr 760","address":"Doug Davis Dr 760 30354 Atlanta United States"}},{"type":"Feature","geometry":{"type":"Point","coordinates":[-89.8097005,35.202494]},"properties":{"name":"7620 Appling Center Dr","company":"Zayo Group LLC","city":"Memphis","country":"United States","street":"7620 Appling Center Drive","address":"7620 Appling Center Drive 38133 Memphis United States"}},{"type":"Feature","geometry":{"type":"Point","coordinates":[-97.6923059,30.216268]},"properties":{"name":"7620 Metro Center Drive","company":"Digital Realty Trust","city":"Austin","country":"United States","street":"7620 Metro Center Drive","address":"7620 Metro Center Drive 78704 Austin United States"}},{"type":"Feature","geometry":{"type":"Point","coordinates":[5.381359,43.250347700000006]},"properties":{"name":"78 Blvd du Sablier","company":"Orange","city":"Marseille","country":"France","street":"78 Blvd du Sablier, Bonneveine","address":"78 Blvd du Sablier, Bonneveine Marseille France"}},{"type":"Feature","geometry":{"type":"Point","coordinates":[-84.5179229,39.1027886]},"properties":{"name":"7th St.","company":"CyrusOne","city":"Cincinnati","country":"United States","street":"West 7th Street 229","address":"West 7th Street 229 45202 Cincinnati United States"}},{"type":"Feature","geometry":{"type":"Point","coordinates":[135.5976315,34.8140572]},"properties":{"name":"8-1, 5 Chome, Yamabuki, Saito","company":"Digital Realty Trust","city":"Ibaraki-shi","country":"Japan","street":"8-1, 5 Chome 567-0051","address":"8-1, 5 Chome 567-0051 Ibaraki-shi Japan"}},{"type":"Feature","geometry":{"type":"Point","coordinates":[-73.1492921,41.2472364]},"properties":{"name":"80 Merritt Blvd","company":"Digital Realty Trust","city":"Trumbull","country":"United States","street":"80 Merritt Blvd","address":"80 Merritt Blvd 06611-5436 Trumbull USA"}},{"type":"Feature","geometry":{"type":"Point","coordinates":[-87.9238121,42.0771274]},"properties":{"name":"800 E Business Center Dr.","company":"Zayo Group LLC","city":"Prospect","country":"United States","street":"800 E Business Center Dr","address":"800 E Business Center Dr 60056-2178 Mt Prospect USA"}},{"type":"Feature","geometry":{"type":"Point","coordinates":[-118.259038,34.046412]},"properties":{"name":"800 South Hope","company":"Thomas Properties Group","city":"Los","country":"United States","street":"800 South Hope Street","address":"800 South Hope Street 90017 Los Angeles United States"}},{"type":"Feature","geometry":{"type":"Point","coordinates":[-81.542437,35.922702]},"properties":{"name":"801 Main Street NW","company":"Dacentec","city":"Lenoir","country":"United States","street":"801 Main Street","address":"801 Main Street NW NC 28645 Lenoir United States"}},{"type":"Feature","geometry":{"type":"Point","coordinates":[-76.4673573,39.3679394]},"properties":{"name":"8029 Corporate Drive","company":"Lincoln Rackhouse","city":"Nottingham","country":"United States","street":"8029 Corporate Dr","address":"8029 Corporate Dr 21236 Nottingham USA"}},{"type":"Feature","geometry":{"type":"Point","coordinates":[-73.9908681,40.7671589]},"properties":{"name":"811 10th Ave","company":"Brookfield Infrastructure Partners LP","city":"New","country":"United States","street":"811 10th Avenue","address":"811 10th Avenue 10019 New York United States"}},{"type":"Feature","geometry":{"type":"Point","coordinates":[-97.6862914,30.2159852]},"properties":{"name":"8201 E. Riverside Drive, Building 4-6","company":"Digital Realty Trust","city":"Austin","country":"United States","street":"E Riverside Dr 8201, Building 4-6","address":"E Riverside Dr 8201, Building 4-6 78744 Austin United States"}},{"type":"Feature","geometry":{"type":"Point","coordinates":[-77.6000547,38.778784]},"properties":{"name":"8217 Linton Hall Road","company":"Digital Realty Trust","city":"Gainesville","country":"United States","street":"8217 Linton Hall Rd","address":"8217 Linton Hall Rd 20155 Gainesville USA"}},{"type":"Feature","geometry":{"type":"Point","coordinates":[-87.6392312,41.8717114]},"properties":{"name":"840 S Canal St","company":"Zayo Group LLC","city":"Chicago","country":"United States","street":"840 Canal St","address":"840 Canal St 60607 Chicago USA"}},{"type":"Feature","geometry":{"type":"Point","coordinates":[-87.6392312,41.8717114]},"properties":{"name":"840 South Canal Street","company":"Red Sea Group","city":"Street","country":"United States","street":"840 South Canal","address":"840 South Canal Street IL 60607 Chicago United States"}},{"type":"Feature","geometry":{"type":"Point","coordinates":[-96.8743167,32.827456]},"properties":{"name":"8435 N. Stemmons Freeway","company":"Digital Realty Trust","city":"Dallas","country":"United States","street":"N Stemmons Fwy 8435","address":"N Stemmons Fwy 8435 75247 Dallas United States"}},{"type":"Feature","geometry":{"type":"Point","coordinates":[-96.7133217,32.9673234]},"properties":{"name":"850 E. Collins Blvd","company":"Digital Realty Trust","city":"Blvd","country":"United States","street":"850 E. Collins","address":"850 E. Collins Blvd TX 75081 Richardson United States"}},{"type":"Feature","geometry":{"type":"Point","coordinates":[-111.8957585,33.6445902]},"properties":{"name":"8521 E Princess Dr","company":"Cyxtera","city":"Scottsdale","country":"United States","street":"8521 E Princess Dr","address":"8521 E Princess Dr 85255 Scottsdale USA"}},{"type":"Feature","geometry":{"type":"Point","coordinates":[-104.8307315,39.5608018]},"properties":{"name":"8534 Concord Center Dr","company":"Digital Realty Trust","city":"Englewood","country":"United States","street":"8534 Concord Center","address":"8534 Concord Center Dr CO 80112 Englewood United States"}},{"type":"Feature","geometry":{"type":"Point","coordinates":[-96.865265,32.8385945]},"properties":{"name":"8600 Harry Hines Blvd.","company":"Zayo Group LLC","city":"Dallas","country":"United States","street":"8600 Harry Hines Blvd","address":"8600 Harry Hines Blvd 75235-3015 Dallas USA"}},{"type":"Feature","geometry":{"type":"Point","coordinates":[138.6003349,-34.9349821]},"properties":{"name":"90 King William Street","company":"EscapeNet","city":"Adelaide","country":"Australia","street":"90 King William Street","address":"90 King William Street 5000 Adelaide Australia"}},{"type":"Feature","geometry":{"type":"Point","coordinates":[-96.7132141,32.9661783]},"properties":{"name":"900 Quality Way","company":"Digital Realty Trust","city":"Way","country":"United States","street":"900 Quality","address":"900 Quality Way TX 75081 Richardson United States"}},{"type":"Feature","geometry":{"type":"Point","coordinates":[-90.1952177,38.6254795]},"properties":{"name":"900 Walnut","company":"Netrality","city":"St.","country":"United States","street":"900 Walnut St","address":"900 Walnut St 63102 St. Louis USA"}},{"type":"Feature","geometry":{"type":"Point","coordinates":[-96.7111697,32.9662159]},"properties":{"name":"904 Quality Way","company":"Digital Realty Trust","city":"Way","country":"United States","street":"904 Quality","address":"904 Quality Way TX 75081 Richardson United States"}},{"type":"Feature","geometry":{"type":"Point","coordinates":[-96.7102842,32.965086]},"properties":{"name":"907 Security Row","company":"Digital Realty Trust","city":"Richardson","country":"United States","street":"Security Row 907","address":"Security Row 907 75081 Richardson United States"}},{"type":"Feature","geometry":{"type":"Point","coordinates":[-96.713927,32.9667109]},"properties":{"name":"908 Quality Way","company":"Digital Realty Trust","city":"Way","country":"United States","street":"908 Quality","address":"908 Quality Way TX 75081 Richardson United States"}},{"type":"Feature","geometry":{"type":"Point","coordinates":[-104.995408,39.7456639]},"properties":{"name":"910Telecom","company":"910Telecom","city":"St.","country":"United States","street":"910 15th","address":"910 15th St. CO 80202 Denver United States"}},{"type":"Feature","geometry":{"type":"Point","coordinates":[5.3740454,43.3162499]},"properties":{"name":"93 rue Felix Pyat","company":"Orange","city":"Marseille","country":"France","street":"93 rue Felix Pyat","address":"93 rue Felix Pyat Marseille France"}},{"type":"Feature","geometry":{"type":"Point","coordinates":[-82.3511008,27.945531]},"properties":{"name":"9310 Florida Palm Dr","company":"Cyxtera","city":"Tampa","country":"United States","street":"9310 Florida Palm Dr","address":"9310 Florida Palm Dr 33619 Tampa USA"}},{"type":"Feature","geometry":{"type":"Point","coordinates":[-96.710528,32.967322]},"properties":{"name":"950 E. Collins Blvd","company":"Digital Realty Trust","city":"Blvd","country":"United States","street":"950 E. Collins","address":"950 E. Collins Blvd TX 75081 Richardson United States"}},{"type":"Feature","geometry":{"type":"Point","coordinates":[-117.1209008,32.8097896]},"properties":{"name":"9606 Aero Drive","company":"redIT","city":"Drive","country":"United States","street":"9606 Aero","address":"9606 Aero Drive CA 92123 San Diego United States"}},{"type":"Feature","geometry":{"type":"Point","coordinates":[-117.1209008,32.8097896]},"properties":{"name":"9606 Aero Drive","company":"Zayo Group LLC","city":"San","country":"United States","street":"9606 Aero Dr","address":"9606 Aero Dr 92123 San Diego USA"}},{"type":"Feature","geometry":{"type":"Point","coordinates":[144.779297,-37.7819699]},