{"type":"FeatureCollection","features":[{"type":"Feature","geometry":{"type":"Point","coordinates":[-2.835833,31.099444]},"properties":{"name":"Centre interarmées d'essais d'engins spéciaux (CIEES), Hammaguir","country":"French Algeria","operational":"1947–1967","launches":"230","heaviest":"18,000 kg","notes":"Operated by France."}},{"type":"Feature","geometry":{"type":"Point","coordinates":[0.276944,26.718889]},"properties":{"name":"Reggane","country":"Algeria","operational":"1961–1965","launches":"10","heaviest":"","notes":""}},{"type":"Feature","geometry":{"type":"Point","coordinates":[28.527778,-7.925833]},"properties":{"name":"Shaba North, Kapani Tonneo OTRAG Launch Center","country":"Zaire","operational":"1975–1979","launches":"3","heaviest":"","notes":"German OTRAG rockets."}},{"type":"Feature","geometry":{"type":"Point","coordinates":[30.605139,30.12575]},"properties":{"name":"Jabal Hamzah ballistic missile test and launch facility","country":"Egypt","operational":"1962–1973","launches":"6","heaviest":"","notes":"Testing SRBMs Al Zafir and Al Kahir"}},{"type":"Feature","geometry":{"type":"Point","coordinates":[40.213333,-2.940833]},"properties":{"name":"Broglio Space Centre (San Marco), Malindi","country":"Kenya","operational":"1964–1988","launches":"27","heaviest":"20,000 kg","notes":"Scout rockets, operated by ASI and Sapienza University of Rome, Italy."}},{"type":"Feature","geometry":{"type":"Point","coordinates":[14.464167,26.993889]},"properties":{"name":"Sabha, Tawiwa OTRAG Launch Center","country":"Libya","operational":"1981–1987","launches":"2","heaviest":"","notes":"German OTRAG rockets after site in Zaire closed."}},{"type":"Feature","geometry":{"type":"Point","coordinates":[-17.031667,20.928611]},"properties":{"name":"Nouadhibou","country":"Mauritania","operational":"1973–1973","launches":"1","heaviest":"","notes":"During a solar eclipse"}},{"type":"Feature","geometry":{"type":"Point","coordinates":[20.3025,-34.602778]},"properties":{"name":"Overberg South African Test Centre","country":"South Africa","operational":"1986–1993, 2000s–","launches":"","heaviest":"","notes":"Launched test mission rockets only."}},{"type":"Feature","geometry":{"type":"Point","coordinates":[119.205833,30.9375]},"properties":{"name":"Base 603, Shijiedu, Guangde","country":"China","operational":"1960–1966","heaviest":"1,000kg","notes":""}},{"type":"Feature","geometry":{"type":"Point","coordinates":[100.298333,40.960556]},"properties":{"name":"Jiuquan Satellite Launch Center","country":"China","operational":"1970–","heaviest":"464,000kg","notes":"Human spaceflight"}},{"type":"Feature","geometry":{"type":"Point","coordinates":[111.608497,38.849086]},"properties":{"name":"Taiyuan Satellite Launch Center","country":"China","operational":"1980–","heaviest":"249,000kg","notes":"Polar satellites"}},{"type":"Feature","geometry":{"type":"Point","coordinates":[102.028056,28.246389]},"properties":{"name":"Xichang Satellite Launch Center","country":"China","operational":"1984–","heaviest":"459,000kg","notes":"Geo-synchronous satellites, lunar probes."}},{"type":"Feature","geometry":{"type":"Point","coordinates":[110.951133,19.614492]},"properties":{"name":"Wenchang Satellite Launch Center","country":"China","operational":"2016–","heaviest":"879,000kg","notes":"New site on Hainan Island with pads for Long March 5 and Long March 7 rockets"}},{"type":"Feature","geometry":{"type":"Point","coordinates":[126.5,42]},"properties":{"name":"Jingyu","country":"China","operational":"","heaviest":"","notes":""}},{"type":"Feature","geometry":{"type":"Point","coordinates":[76.868889,8.531389]},"properties":{"name":"Vikram Sarabhai Space Centre (Thumba Equatorial), Thiruvananthapuram District, Kerala","country":"India","operational":"1962–","heaviest":"","notes":"Primarily used as the launch site for Sounding rockets."}},{"type":"Feature","geometry":{"type":"Point","coordinates":[80.235,13.7375]},"properties":{"name":"Satish Dhawan Space Centre (Sriharikota Range), Tirupati District, Andhra Pradesh","country":"India","operational":"1971–","heaviest":"690,000kg","notes":"Polar and Geosynchronous Satellites; Lunar and Mars probes."}},{"type":"Feature","geometry":{"type":"Point","coordinates":[87.085556,20.758056]},"properties":{"name":"Abdul Kalam Island, Bhadrak District, Odisha","country":"India","operational":"1980–","heaviest":"","notes":"Military integrated testing range for advanced guided missiles."}},{"type":"Feature","geometry":{"type":"Point","coordinates":[107.688889,-7.646667]},"properties":{"name":"LAPAN Rocket Launcher Station, Pameungpeuk, Garut","country":"Indonesia","operational":"1965–","heaviest":"765kg","notes":""}},{"type":"Feature","geometry":{"type":"Point","coordinates":[50.9,34.65]},"properties":{"name":"Qom Space Center","country":"Iran","operational":"1991","heaviest":"","notes":"Military testing"}},{"type":"Feature","geometry":{"type":"Point","coordinates":[55.02,36.42]},"properties":{"name":"Shahroud Space Center","country":"Iran","operational":"1998–","heaviest":"","notes":"Military tests and missile sounding for ISA Under the control of IRGCASF"}},{"type":"Feature","geometry":{"type":"Point","coordinates":[53.920833,35.234722]},"properties":{"name":"Semnan spaceport","country":"Iran","operational":"2009–","heaviest":"","notes":""}},{"type":"Feature","geometry":{"type":"Point","coordinates":[44.299722,32.782222]},"properties":{"name":"Al-Anbar Test Center","country":"Iraq","operational":"1989","heaviest":"48,000kg","notes":"Out of function\nAl-Abid"}},{"type":"Feature","geometry":{"type":"Point","coordinates":[34.680278,31.884722]},"properties":{"name":"Palmachim Air Force Base","country":"Israel","operational":"1987–","heaviest":"70000kg","notes":""}},{"type":"Feature","geometry":{"type":"Point","coordinates":[140.057778,39.571389]},"properties":{"name":"Akita Rocket Range","country":"Japan","operational":"1956–1990","heaviest":"","notes":""}},{"type":"Feature","geometry":{"type":"Point","coordinates":[131.079167,31.251944]},"properties":{"name":"Uchinoura Space Center","country":"Japan","operational":"1962–","heaviest":"139,000kg","notes":""}},{"type":"Feature","geometry":{"type":"Point","coordinates":[143.262778,42.3]},"properties":{"name":"Taiki Multi-Purpose Aerospace Park, Taiki, Hokkaido","country":"Japan","operational":"2010–","heaviest":"1,000kg","notes":"Suborbital and future orbital launch site for Interstellar Technologies and Space Walker[ja]"}},{"type":"Feature","geometry":{"type":"Point","coordinates":[130.968056,30.390833]},"properties":{"name":"Tanegashima Space Center, Tanegashima Island","country":"Japan","operational":"1967–","heaviest":"445,000kg","notes":"[20]"}},{"type":"Feature","geometry":{"type":"Point","coordinates":[135.879722,33.550833]},"properties":{"name":"Spaceport Kii, Kushimoto, Wakayama Prefecture","country":"Japan","operational":"2024–","heaviest":"","notes":"Orbital launch site for Space One"}},{"type":"Feature","geometry":{"type":"Point","coordinates":[141.83,39.03]},"properties":{"name":"Ryori","country":"Japan","operational":"1970–2001","heaviest":"","notes":"Sounding rocket launch site for the Japan Meteorological Agency"}},{"type":"Feature","geometry":{"type":"Point","coordinates":[139.265833,34.337778]},"properties":{"name":"Niijima[ja]","country":"Japan","operational":"1963–1965","heaviest":"","notes":"Eighteen launches of small rockets"}},{"type":"Feature","geometry":{"type":"Point","coordinates":[141.369444,40.703333]},"properties":{"name":"Obachi","country":"Japan","operational":"1961–","heaviest":"","notes":"balloon-launched Kappa sounding rockets"}},{"type":"Feature","geometry":{"type":"Point","coordinates":[63.350278,45.955278]},"properties":{"name":"Baikonur Cosmodrome, Tyuratam","country":"Soviet Union/ Kazakhstan\n(Operated by  Russia)","operational":"1955–","heaviest":"2,400,000kg","notes":"First satellite, first human in space. Operated by Russia."}},{"type":"Feature","geometry":{"type":"Point","coordinates":[72.87,46.38]},"properties":{"name":"Sary Shagan[citation needed]","country":"Soviet Union/ Kazakhstan\n(Partly operated by  Russia)","operational":"1958–","heaviest":"","notes":"Military testing ground for anti-missile weapons. Part of the testing ground is rented by Russian Ministry of Defense."}},{"type":"Feature","geometry":{"type":"Point","coordinates":[129.665833,40.855833]},"properties":{"name":"Tonghae Satellite Launching Ground","country":"North Korea","operational":"1998–","heaviest":"","notes":"Military rockets; satellite launch"}},{"type":"Feature","geometry":{"type":"Point","coordinates":[124.705,39.66]},"properties":{"name":"Sohae Satellite Launching Station","country":"North Korea","operational":"2012–","heaviest":"","notes":"Military rockets; satellite launch"}},{"type":"Feature","geometry":{"type":"Point","coordinates":[126.471667,36.702222]},"properties":{"name":"Anheung Proving Ground","country":"South Korea","operational":"1993–","heaviest":"","notes":""}},{"type":"Feature","geometry":{"type":"Point","coordinates":[127.528056,34.425833]},"properties":{"name":"Naro Space Center, Goheung","country":"South Korea","operational":"2008–","heaviest":"200,000kg","notes":"Attempted satellite launches"}},{"type":"Feature","geometry":{"type":"Point","coordinates":[73.156667,-0.693333]},"properties":{"name":"Gan Island","country":"Maldives","operational":"","heaviest":"","notes":"Several rockets of the Kookaburra type were launched from a pad at 0°41' S and 73°9' E"}},{"type":"Feature","geometry":{"type":"Point","coordinates":[56.821944,18.786111]},"properties":{"name":"Etlaq Spaceport","country":"Oman","operational":"2024-","heaviest":"","notes":"Suborbital launches"}},{"type":"Feature","geometry":{"type":"Point","coordinates":[66.748889,25.1925]},"properties":{"name":"Sonmiani Satellite Launch Center, Las Bela, Balochistan","country":"Pakistan","operational":"1960s–","heaviest":"","notes":"Sounding rockets & missile testing for SUPARCO"}},{"type":"Feature","geometry":{"type":"Point","coordinates":[58.05,80.45]},"properties":{"name":"Kheysa","country":"Soviet Union","operational":"1956–2008","heaviest":"","notes":"Arctic sounding rocket launch site"}},{"type":"Feature","geometry":{"type":"Point","coordinates":[128.275833,51.834444]},"properties":{"name":"Svobodny Cosmodrome, Amur Oblast","country":"Soviet Union/  Russia","operational":"1957–2007","heaviest":"47,000kg","notes":"ICBM base converted for satellites"}},{"type":"Feature","geometry":{"type":"Point","coordinates":[140.3,48.97]},"properties":{"name":"Sovetskaya Gavan","country":"Soviet Union","operational":"1963–1964","heaviest":"","notes":""}},{"type":"Feature","geometry":{"type":"Point","coordinates":[143.25,59.366667]},"properties":{"name":"Okhotsk[citation needed]","country":"Soviet Union/  Russia","operational":"1981–2005","heaviest":"","notes":""}},{"type":"Feature","geometry":{"type":"Point","coordinates":[59.85,51.206944]},"properties":{"name":"Yasny Cosmodrome (formerly Dombarovsky), Orenburg Oblast","country":"Russia","operational":"2006–","heaviest":"211,000kg","notes":"ICBM base converted for satellites"}},{"type":"Feature","geometry":{"type":"Point","coordinates":[128.333056,51.883056]},"properties":{"name":"Vostochny Cosmodrome, Amur Oblast","country":"Russia","operational":"2016–","heaviest":"","notes":"Facility on Russian territory to supplement Baikonur Cosmodrome in Kazakhstan"}},{"type":"Feature","geometry":{"type":"Point","coordinates":[120.9,22.1]},"properties":{"name":"Gangzi Station, Haiqian, Pingtung County","country":"Taiwan","operational":"1988–","heaviest":"10,000kg","notes":"Science and technology development"}},{"type":"Feature","geometry":{"type":"Point","coordinates":[120.890278,22.262222]},"properties":{"name":"Nantian Launch Facility, Taitung County","country":"Taiwan","operational":"2016–","heaviest":"","notes":"Used by TiSPACE for testing and launching"}},{"type":"Feature","geometry":{"type":"Point","coordinates":[27.955,42.085833]},"properties":{"name":"Ahtopol","country":"Bulgaria","operational":"1984–1990","launches":"28","heaviest":"475kg","notes":""}},{"type":"Feature","geometry":{"type":"Point","coordinates":[6.478889,43.045]},"properties":{"name":"Ile du Levant","country":"France","operational":"1948–1970s","launches":"","heaviest":"","notes":"Missile test site"}},{"type":"Feature","geometry":{"type":"Point","coordinates":[13.21,52.35]},"properties":{"name":"Rocket Launch Site Berlin, Berlin-Tegel","country":"Germany","operational":"1930–1933","launches":"","heaviest":"","notes":""}},{"type":"Feature","geometry":{"type":"Point","coordinates":[13.793889,54.143056]},"properties":{"name":"Peenemünde/Greifswalder Oie","country":"Germany","operational":"1942–1945","launches":"3000+","heaviest":"12,500kg","notes":"V-2 rockets during World War II, first rocket to reach space 20 June 1944"}},{"type":"Feature","geometry":{"type":"Point","coordinates":[8.591667,53.848889]},"properties":{"name":"Cuxhaven","country":"West Germany","operational":"1945–1964","launches":"","heaviest":"","notes":""}},{"type":"Feature","geometry":{"type":"Point","coordinates":[8.3125,52.938889]},"properties":{"name":"Hespenbusch, Großenkneten","country":"West Germany","operational":"1952–1957","launches":"","heaviest":"","notes":""}},{"type":"Feature","geometry":{"type":"Point","coordinates":[12.784444,54.44]},"properties":{"name":"Zingst","country":"Germany","operational":"1970–1992","launches":"67","heaviest":"130kg","notes":""}},{"type":"Feature","geometry":{"type":"Point","coordinates":[21.931667,36.769722]},"properties":{"name":"Koroni","country":"Greece","operational":"1966–1989","launches":"371","heaviest":"","notes":""}},{"type":"Feature","geometry":{"type":"Point","coordinates":[9.633056,39.527222]},"properties":{"name":"Salto di Quirra","country":"Italy","operational":"1964–[citation needed]","launches":"","heaviest":"","notes":""}},{"type":"Feature","geometry":{"type":"Point","coordinates":[16.020833,69.294167]},"properties":{"name":"Andøya Space Center","country":"Norway","operational":"1962–","launches":"1200+","heaviest":"800kg","notes":"Rockets to the upper atmosphere.[41]"}},{"type":"Feature","geometry":{"type":"Point","coordinates":[7.3,58.2]},"properties":{"name":"Marka","country":"Norway","operational":"1983–1984","launches":"","heaviest":"16kg","notes":""}},{"type":"Feature","geometry":{"type":"Point","coordinates":[15.646944,78.223333]},"properties":{"name":"SvalRak","country":"Norway","operational":"1997–[citation needed]","launches":"","heaviest":"","notes":""}},{"type":"Feature","geometry":{"type":"Point","coordinates":[17.985,53.619722]},"properties":{"name":"SS-Proving Ground Westpreußen today Poland (Tuchola Forest)","country":"Germany Nazi-occupied Poland","operational":"1944–1945","launches":"","heaviest":"","notes":"Nazi-German V-2 rockets"}},{"type":"Feature","geometry":{"type":"Point","coordinates":[17.593611,54.769167]},"properties":{"name":"Leba in Pommern since 1945 part of Poland","country":"[[|Germany]]","operational":"1941–1945","launches":"","heaviest":"","notes":"Nazi-German rockets"}},{"type":"Feature","geometry":{"type":"Point","coordinates":[17.518056,54.754444]},"properties":{"name":"Łeba-Rąbka[citation needed]","country":"Poland","operational":"1963–1973","launches":"36","heaviest":"","notes":"Polish rockets"}},{"type":"Feature","geometry":{"type":"Point","coordinates":[21.616111,50.181944]},"properties":{"name":"V-2 missile launch site, Blizna","country":"Germany Nazi-occupied Poland","operational":"1943–1944[citation needed]","launches":"139","heaviest":"","notes":"Nazi-German V-2 rockets"}},{"type":"Feature","geometry":{"type":"Point","coordinates":[46.254167,48.578056]},"properties":{"name":"Kapustin Yar Cosmodrome, Astrakhan Oblast","country":"Soviet Union/ Russia","operational":"1957–[citation needed]","launches":"","heaviest":"","notes":"Previously for satellite launches[42]"}},{"type":"Feature","geometry":{"type":"Point","coordinates":[39.187222,64.649167]},"properties":{"name":"Nyonoksa","country":"Soviet Union/ Russia","operational":"1965–1997[citation needed]","launches":"","heaviest":"","notes":""}},{"type":"Feature","geometry":{"type":"Point","coordinates":[40.577778,62.925556]},"properties":{"name":"Plesetsk Cosmodrome","country":"Soviet Union/ Russia","operational":"1966–","launches":"1000+","heaviest":"760,000kg","notes":""}},{"type":"Feature","geometry":{"type":"Point","coordinates":[-6.738611,37.096944]},"properties":{"name":"El Arenosillo","country":"Spain","operational":"1966–[citation needed]","launches":"500+","heaviest":"","notes":"Formerly used only by INTA, now used by Zero 2 Infinity and PLD Space"}},{"type":"Feature","geometry":{"type":"Point","coordinates":[19.275833,66.357222]},"properties":{"name":"Nausta","country":"Sweden","operational":"1961–1961[44]","launches":"1","heaviest":"30kg","notes":"Plutnik rocket.[44]"}},{"type":"Feature","geometry":{"type":"Point","coordinates":[19.276667,66.414722]},"properties":{"name":"Kronogård","country":"Sweden","operational":"1961–1964","launches":"18","heaviest":"700kg","notes":"Arcas, Nike-Cajun and Nike-Apache rockets for atmospheric research."}},{"type":"Feature","geometry":{"type":"Point","coordinates":[21.104167,67.893333]},"properties":{"name":"Esrange, Kiruna","country":"Sweden","operational":"1966–","launches":"450","heaviest":"12,400kg","notes":"Operated by ESRO.[45] Operated by SSC since 1972.[45] Major programmes: Maxus, TEXUS, Maser, stratospheric balloons."}},{"type":"Feature","geometry":{"type":"Point","coordinates":[-7.33,57.33]},"properties":{"name":"South Uist","country":"United Kingdom","operational":"1959, 2015, 2022","launches":"2","heaviest":"1300~kg","notes":"First test launch in 1959. First space launch from the UK took place here in October 2015 as part of 'At Sea Demonstration 15' of an American 'Terrier-Orion' sounding rocket.[46]"}},{"type":"Feature","geometry":{"type":"Point","coordinates":[-93.820278,58.734167]},"properties":{"name":"Churchill Rocket Research Range, Manitoba","country":"Canada","operational":"1954–1998","launches":"3500+","heaviest":"","notes":"Canadian Army"}},{"type":"Feature","geometry":{"type":"Point","coordinates":[-94.896111,74.686944]},"properties":{"name":"Resolute Bay, Nunavut","country":"Canada","operational":"1966–1971","launches":"17","heaviest":"","notes":"National Research Council Canada"}},{"type":"Feature","geometry":{"type":"Point","coordinates":[-81.243333,68.776111]},"properties":{"name":"Hall Beach, Nunavut","country":"Canada","operational":"1971–1971","launches":"7","heaviest":"","notes":""}},{"type":"Feature","geometry":{"type":"Point","coordinates":[-103.133333,56.2]},"properties":{"name":"Southend, Saskatchewan","country":"Canada","operational":"1980","launches":"2","heaviest":"1,200kg","notes":""}},{"type":"Feature","geometry":{"type":"Point","coordinates":[-60.982778,45.303611]},"properties":{"name":"Spaceport Nova Scotia, Nova Scotia","country":"Canada","operational":"2023–","launches":"2","heaviest":"","notes":"Under construction by Maritime Launch Services"}},{"type":"Feature","geometry":{"type":"Point","coordinates":[-68.293611,76.423889]},"properties":{"name":"Pituffik Space Base","country":"Greenland ( Denmark)","operational":"1964–1980","launches":"","heaviest":"","notes":"Former US Air Force launch site"}},{"type":"Feature","geometry":{"type":"Point","coordinates":[-71.823056,42.251111]},"properties":{"name":"Clark University Physics Laboratory, Worcester, Massachusetts","country":"United States","operational":"1914–1920s","launches":"≈10","heaviest":"","notes":"Robert H. Goddard's first experimental rockets, starting with powder-based fuels. Was also site of liquid rocket engine tests before being launched in nearby Auburn."}},{"type":"Feature","geometry":{"type":"Point","coordinates":[-71.811944,42.218889]},"properties":{"name":"Goddard Test Site, Auburn, Massachusetts","country":"United States","operational":"1925–1930","launches":"5","heaviest":"","notes":"Open field chosen as rocket test site in 1925; launch site of Robert H. Goddard's first liquid fuel rockets beginning on 16 March 1926.:143"}},{"type":"Feature","geometry":{"type":"Point","coordinates":[-104.5,33.626111]},"properties":{"name":"Eden Valley Test Site, Roswell, New Mexico","country":"United States","operational":"1930–1941","launches":">30","heaviest":"","notes":"Used for Goddard's later rocket tests."}},{"type":"Feature","geometry":{"type":"Point","coordinates":[-75.479444,37.846111]},"properties":{"name":"Wallops Flight Facility, Delmarva Peninsula, Virginia","country":"United States","operational":"1945–","launches":"1600+","heaviest":"","notes":"Now operated by NASA's Goddard Space Flight Center."}},{"type":"Feature","geometry":{"type":"Point","coordinates":[-106.359167,32.564722]},"properties":{"name":"White Sands Missile Range, New Mexico","country":"United States","operational":"1945–","launches":"7500+","heaviest":"","notes":"Military and civilian flights. Served as alternate landing site for the Space Shuttle."}},{"type":"Feature","geometry":{"type":"Point","coordinates":[-116.113611,36.771389]},"properties":{"name":"Nevada Test and Training Range (formerly Nellis Air Force Range)","country":"United States","operational":"1946–1960s","launches":"2000+","heaviest":"","notes":""}},{"type":"Feature","geometry":{"type":"Point","coordinates":[-147.478889,65.126111]},"properties":{"name":"Poker Flat Research Range, Alaska","country":"United States","operational":"1949–","launches":"5000+","heaviest":"","notes":"Sounding rocket launch site"}},{"type":"Feature","geometry":{"type":"Point","coordinates":[-80.558611,28.466667]},"properties":{"name":"Cape Canaveral Space Force Station, Florida","country":"United States","operational":"1949–","launches":"1000+","heaviest":"","notes":"Commercial and U.S. Government uncrewed missions. Adjacent to NASA KSC."}},{"type":"Feature","geometry":{"type":"Point","coordinates":[-120.601111,34.771944]},"properties":{"name":"Vandenberg Space Force Base, California","country":"United States","operational":"1958–","launches":"500+","heaviest":"","notes":"Satellites, ballistic missile tests. Government and commercial launches. Also launches SpaceX rockets."}},{"type":"Feature","geometry":{"type":"Point","coordinates":[-80.603889,28.608333]},"properties":{"name":"Kennedy Space Center, Florida","country":"United States","operational":"1962–","launches":"151","heaviest":"3,000,000kg","notes":"Launched each NASA crewed mission. Adjacent to Cape Canaveral Space Force Station."}},{"type":"Feature","geometry":{"type":"Point","coordinates":[-159.785,22.022778]},"properties":{"name":"Pacific Missile Range Facility, Hawaii","country":"United States","operational":"1963–","launches":"","heaviest":"","notes":"Used for testing of antiballistic missile and missile tracking by the US Navy."}},{"type":"Feature","geometry":{"type":"Point","coordinates":[-87.714444,47.429722]},"properties":{"name":"Keweenaw, Michigan","country":"United States","operational":"1964–1971","launches":"50+","heaviest":"770kg","notes":"Sounding rocket launch site. Currently inactive."}},{"type":"Feature","geometry":{"type":"Point","coordinates":[-152.339444,57.435278]},"properties":{"name":"Pacific Spaceport Complex, Kodiak, Alaska","country":"United States","operational":"1991–","launches":"26","heaviest":"86,000kg","notes":"Ballistic missile interceptor tests, satellite launches. Alaska Aerospace Corporation."}},{"type":"Feature","geometry":{"type":"Point","coordinates":[-75.483333,37.833333]},"properties":{"name":"Mid-Atlantic Regional Spaceport (MARS), Delmarva Peninsula, Virginia","country":"United States","operational":"1995–","launches":"22","heaviest":"89,805kg","notes":"Operates in partnership with NASA, adjacent to Wallops Flight Facility. Designed for both commercial and government launches. In 2019, Rocket Lab built their first US launch facility here."}},{"type":"Feature","geometry":{"type":"Point","coordinates":[-118.148889,35.059167]},"properties":{"name":"Mojave Air and Space Port, California","country":"United States","operational":"2003–","launches":"20+","heaviest":"","notes":"Adjacent to Edwards AFB. Privately funded, horizontal-launch spaceport. Xoie, Xombie, Xodiac (Masten Space Systems); SpaceShipOne, SpaceShipTwo (Scaled Composites, Virgin Galactic); Launcher One (Virgin Orbit)."}},{"type":"Feature","geometry":{"type":"Point","coordinates":[-106.999444,32.889444]},"properties":{"name":"Spaceport America, Upham, New Mexico","country":"United States","operational":"2006–","launches":"50+","heaviest":"","notes":"Sub-orbital commercial and planned space tourist launches. Operated by the state of New Mexico with Virgin Galactic as the anchor tenant. Adjacent to White Sands Missile Range."}},{"type":"Feature","geometry":{"type":"Point","coordinates":[-104.453333,31.2525]},"properties":{"name":"Corn Ranch, Van Horn, Texas","country":"United States","operational":"2006–","launches":"20","heaviest":"","notes":"Used by Blue Origin for suborbital launches and engine tests."}},{"type":"Feature","geometry":{"type":"Point","coordinates":[-81.305278,30.553889]},"properties":{"name":"Spaceport Camden, Camden County, Georgia","country":"United States","operational":"2016–2019","launches":"2","heaviest":"","notes":"Originally Thiokol rocket testing facility. Used by Vector Space for testing and launching. Project and site abandoned in 2023 due to local pushback and financial issues."}},{"type":"Feature","geometry":{"type":"Point","coordinates":[-97.153889,25.996111]},"properties":{"name":"SpaceX Starbase Spaceport, Starbase, Texas","country":"United States","operational":"2018–","launches":"~10","heaviest":"~5,000,000 kg","notes":"Site originally planned for Falcon rockets, now used exclusively by SpaceX for Starship/SuperHeavy testing and launching."}},{"type":"Feature","geometry":{"type":"Point","coordinates":[-67.6,44.444444]},"properties":{"name":"Maine Spaceport Complex, Washington County, Maine","country":"United States","operational":"2020–","launches":"1","heaviest":"","notes":"Launch site to be used for suborbital and polar low-Earth orbital launch on the east coast by companies BluShift Aerospace and VALT Enterprises and funded by Maine Space Grant Consortium."}},{"type":"Feature","geometry":{"type":"Point","coordinates":[136.503611,-30.958611]},"properties":{"name":"Woomera Test Range, SA","country":"Australia","operational":"1950s–","launches":"","heaviest":"28,000kg","notes":"Australian government research facility. Missile testing, 2 satellite launches."}},{"type":"Feature","geometry":{"type":"Point","coordinates":[113.408611,-24.485556]},"properties":{"name":"Carnarvon, WA","country":"Australia","operational":"1964–1965","launches":"12","heaviest":"","notes":""}},{"type":"Feature","geometry":{"type":"Point","coordinates":[115.317778,-30.983056]},"properties":{"name":"Lancelin, WA","country":"Australia","operational":"1974–1974","launches":"2","heaviest":"","notes":"During a total solar eclipse"}},{"type":"Feature","geometry":{"type":"Point","coordinates":[133.448611,-31.885556]},"properties":{"name":"Koonibba Test Range, SA","country":"Australia","operational":"2019–","launches":"4","heaviest":"","notes":"Used by Southern Launch for suborbital launch tests"}},{"type":"Feature","geometry":{"type":"Point","coordinates":[135.652222,-34.933889]},"properties":{"name":"Whalers Way Orbital Launch Complex, SA","country":"Australia","operational":"2020–","launches":"","heaviest":"","notes":"Used by Southern Launch for orbital polar launches"}},{"type":"Feature","geometry":{"type":"Point","coordinates":[136.821389,-12.378056]},"properties":{"name":"Arnhem Space Centre, NT","country":"Australia","operational":"2021–2024","launches":"2","heaviest":"","notes":"First NASA launches outside USA. Australia's first commercial launches"}},{"type":"Feature","geometry":{"type":"Point","coordinates":[167.743056,9.048056]},"properties":{"name":"Reagan Test Site, Omelek Island, Kwajalein Atoll","country":"Marshall Islands","operational":"1950s–","launches":"","heaviest":"39,000kg","notes":"US-controlled ICBM base converted for satellites. SpaceX Falcon 1. Close to the equator."}},{"type":"Feature","geometry":{"type":"Point","coordinates":[172.683056,-43.816944]},"properties":{"name":"Birdling's Flat","country":"New Zealand","operational":"1980s–","launches":"10<","heaviest":"","notes":"Used for sounding rockets. Formerly proposed launch site for Rocket Lab, never developed."}},{"type":"Feature","geometry":{"type":"Point","coordinates":[175.46,-36.355]},"properties":{"name":"Great Mercury Island","country":"New Zealand","operational":"2009","launches":"1","heaviest":"60 kg","notes":"Used for the first launch by Rocket Lab of their Atea 1 suborbital rocket."}},{"type":"Feature","geometry":{"type":"Point","coordinates":[177.864444,-39.260556]},"properties":{"name":"Rocket Lab Launch Complex 1, Mahia Peninsula","country":"New Zealand","operational":"2017–","launches":"42","heaviest":"13,000kg","notes":"Launch site built and operated by Rocket Lab. First commercial spaceport in the southern hemisphere."}},{"type":"Feature","geometry":{"type":"Point","coordinates":[15.603056,55.049167]},"properties":{"name":"MLP Sputnik","country":"Denmark","operational":"2010–","launches":"4","heaviest":"1,630kg","notes":"Mobile satellite launch platform operated by Copenhagen Suborbitals."}},{"type":"Feature","geometry":{"type":"Point","coordinates":[-64.833333,-31.583333]},"properties":{"name":"Pampa de Achala","country":"Argentina","operational":"1961–1962","launches":"8","heaviest":"28kg","notes":"First Argentine launch site"}},{"type":"Feature","geometry":{"type":"Point","coordinates":[-66.340833,-30.1275]},"properties":{"name":"CELPA","country":"Argentina","operational":"1962–1991, 2010–","launches":"100 (approximately)","heaviest":"933kg","notes":"Military Launch Test Site (CITIDEF)"}},{"type":"Feature","geometry":{"type":"Point","coordinates":[-58.753611,-27.095278]},"properties":{"name":"Las Palmas","country":"Argentina","operational":"1966–1966","launches":"2","heaviest":"3,400kg","notes":"During a solar eclipse, with Titus rockets."}},{"type":"Feature","geometry":{"type":"Point","coordinates":[-63.823889,-22.761667]},"properties":{"name":"Tartagal","country":"Argentina","operational":"1966–1966","launches":"","heaviest":"","notes":"During a solar eclipse"}},{"type":"Feature","geometry":{"type":"Point","coordinates":[-57.405,-37.724167]},"properties":{"name":"Mar Chiquita","country":"Argentina","operational":"1968–1972","launches":"11","heaviest":"","notes":""}},{"type":"Feature","geometry":{"type":"Point","coordinates":[-65.377222,-33.724722]},"properties":{"name":"Villa Reynolds","country":"Argentina","operational":"1973–1973","launches":"2","heaviest":"","notes":""}},{"type":"Feature","geometry":{"type":"Point","coordinates":[-65.383333,-30.633333]},"properties":{"name":"Serrezuela","country":"Argentina","operational":"2009","launches":"1","heaviest":"500kg","notes":"Military test (Gradicom I)"}},{"type":"Feature","geometry":{"type":"Point","coordinates":[-57.183889,-35.523889]},"properties":{"name":"Punta Indio","country":"Argentina","operational":"2011–","launches":"3","heaviest":"7,076kg ","notes":"Civilian Launch Test Site (CONAE)"}},{"type":"Feature","geometry":{"type":"Point","coordinates":[-61.715,-38.962778]},"properties":{"name":"Puerto Belgrano","country":"Argentina","operational":"2014–","launches":"","heaviest":"","notes":"Launch pad for Tronador II under construction (CONAE)"}},{"type":"Feature","geometry":{"type":"Point","coordinates":[-35.383056,-5.866111]},"properties":{"name":"Natal-Barreira do Inferno","country":"Brazil","operational":"1965–","launches":"233","heaviest":"7,270kg","notes":""}},{"type":"Feature","geometry":{"type":"Point","coordinates":[-52.167222,-32.083333]},"properties":{"name":"Praia do Cassino","country":"Brazil","operational":"1966–1966","launches":"27","heaviest":"","notes":""}},{"type":"Feature","geometry":{"type":"Point","coordinates":[-44.3675,-2.316111]},"properties":{"name":"Alcântara Launch Center, Maranhão","country":"Brazil","operational":"1990–","launches":"47","heaviest":"6,737kg","notes":"Brazilian Air Force, Brazilian Space Agency. Planned satellite launches."}},{"type":"Feature","geometry":{"type":"Point","coordinates":[-52.769444,5.2375]},"properties":{"name":"Guiana Space Centre, Kourou","country":"French Guiana","operational":"1968–","launches":"<200","heaviest":"777,000kg","notes":"Operated by CNES for ESA; launch base for Arianespace. Commercial and governmental launches."}},{"type":"Feature","geometry":{"type":"Point","coordinates":[-76.798611,-12.504722]},"properties":{"name":"Chilca Launch Range","country":"Peru","operational":"1974-1983","launches":"<65","heaviest":"","notes":"Sounding rocket launch location."}},{"type":"Feature","geometry":{"type":"Point","coordinates":[-76.8,-12.5]},"properties":{"name":"Chilca PLOB, Punta Lobos Range","country":"Peru","operational":"1983","launches":"32","heaviest":"2,000kg","notes":"Sounding rocket launch location. Possibly part of, or identical to, Chilca Launch Range.\n"}},{"type":"Feature","geometry":{"type":"Point","coordinates":[-56.325556,5.864444]},"properties":{"name":"Coronie","country":"Dutch Suriname","operational":"1965–1965","launches":"4","heaviest":"","notes":""}}]}