{"type":"FeatureCollection","features":[{"type":"Feature","geometry":{"type":"Point","coordinates":[-110.3941,54.534]},"properties":{"Unit Name":"10103FF/Cold Lake Oil Asset (Alberta, Canada)","Fuel type":"oil","Country/Area":"Canada","Production Type":"unconventional","Status":"operating","Operator":"Strathcona Resources","Onshore/Offshore":"onshore"}},{"type":"Feature","geometry":{"type":"Point","coordinates":[-110.75,55.668]},"properties":{"Unit Name":"10159A/Athabasca Oil and Gas Asset (Alberta, Canada)","Fuel type":"oil and gas","Country/Area":"Canada","Production Type":"unconventional","Operator":"MEG Energy","Onshore/Offshore":"onshore"}},{"type":"Feature","geometry":{"type":"Point","coordinates":[-111.032,57.222]},"properties":{"Unit Name":"10419Hh/Athabasca Oil and Gas Asset (Alberta, Canada)","Fuel type":"oil and gas","Country/Area":"Canada","Production Type":"unconventional","Operator":"Husky Oil Operations Limited","Onshore/Offshore":"onshore"}},{"type":"Feature","geometry":{"type":"Point","coordinates":[-113.447,55.9984]},"properties":{"Unit Name":"10423CC/Athabasca Oil Asset (Alberta, Canada)","Fuel type":"oil","Country/Area":"Canada","Production Type":"unconventional","Status":"operating","Operator":"Canadian Natural Resources","Onshore/Offshore":"onshore"}},{"type":"Feature","geometry":{"type":"Point","coordinates":[-116.6048,56.3137]},"properties":{"Unit Name":"10557K/Peace River Area 2 Oil Asset (Alberta, Canada)","Fuel type":"oil","Country/Area":"Canada","Production Type":"unconventional","Status":"operating","Operator":"Canadian Natural Upgrading","Onshore/Offshore":"onshore"}},{"type":"Feature","geometry":{"type":"Point","coordinates":[-111.7499,56.1231]},"properties":{"Unit Name":"10587DD/Athabasca Oil Asset (Alberta, Canada)","Fuel type":"oil","Country/Area":"Canada","Production Type":"unconventional","Status":"operating","Operator":"Connacher Oil And Gas","Onshore/Offshore":"onshore"}},{"type":"Feature","geometry":{"type":"Point","coordinates":[-110.874,53.689]},"properties":{"Unit Name":"10618H/Cold Lake Oil and Gas Asset (Alberta, Canada)","Fuel type":"oil and gas","Country/Area":"Canada","Production Type":"unconventional","Operator":"Canadian Natural Resources","Onshore/Offshore":"onshore"}},{"type":"Feature","geometry":{"type":"Point","coordinates":[-116.803,56.226]},"properties":{"Unit Name":"10745D/Peace River Area 2 Oil Asset (Alberta, Canada)","Fuel type":"oil","Country/Area":"Canada","Production Type":"unconventional","Status":"operating","Operator":"Obsidian Energy","Onshore/Offshore":"onshore"}},{"type":"Feature","geometry":{"type":"Point","coordinates":[-110.7372,55.6779]},"properties":{"Unit Name":"10773QQQ/Athabasca Oil Asset (Alberta, Canada)","Fuel type":"oil","Country/Area":"Canada","Production Type":"unconventional","Status":"operating","Operator":"MEG Energy","Onshore/Offshore":"onshore"}},{"type":"Feature","geometry":{"type":"Point","coordinates":[-113.2379,55.9682]},"properties":{"Unit Name":"10787R/Athabasca Oil Asset (Alberta, Canada)","Fuel type":"oil","Country/Area":"Canada","Production Type":"unconventional","Status":"operating","Operator":"Canadian Natural Resources","Onshore/Offshore":"onshore"}},{"type":"Feature","geometry":{"type":"Point","coordinates":[-110.119,53.759]},"properties":{"Unit Name":"10828E/Cold Lake Oil Asset (Alberta, Canada)","Fuel type":"oil","Country/Area":"Canada","Production Type":"unconventional","Status":"operating","Operator":"Canadian Natural Resources","Onshore/Offshore":"onshore"}},{"type":"Feature","geometry":{"type":"Point","coordinates":[-116.6716,56.1402]},"properties":{"Unit Name":"11060K/Peace River Area 2 Oil Asset (Alberta, Canada)","Fuel type":"oil","Country/Area":"Canada","Production Type":"unconventional","Status":"operating","Operator":"Obsidian Energy","Onshore/Offshore":"onshore"}},{"type":"Feature","geometry":{"type":"Point","coordinates":[-110.817,53.548]},"properties":{"Unit Name":"11191C/Cold Lake Oil Asset (Alberta, Canada)","Fuel type":"oil","Country/Area":"Canada","Production Type":"unconventional","Status":"operating","Operator":"West Lake Energy","Onshore/Offshore":"onshore"}},{"type":"Feature","geometry":{"type":"Point","coordinates":[-116.8217,56.2557]},"properties":{"Unit Name":"11306D/Peace River Area 2 Oil Asset (Alberta, Canada)","Fuel type":"oil","Country/Area":"Canada","Production Type":"unconventional","Status":"operating","Operator":"Baytex Energy","Onshore/Offshore":"onshore"}},{"type":"Feature","geometry":{"type":"Point","coordinates":[-112.89,56.399]},"properties":{"Unit Name":"11337M/Athabasca Oil and Gas Asset (Alberta, Canada)","Fuel type":"oil and gas","Country/Area":"Canada","Production Type":"unconventional","Operator":"Canadian Natural Resources","Onshore/Offshore":"onshore"}},{"type":"Feature","geometry":{"type":"Point","coordinates":[-110.557,53.794]},"properties":{"Unit Name":"11643D/Cold Lake Oil and Gas Asset (Alberta, Canada)","Fuel type":"oil and gas","Country/Area":"Canada","Production Type":"unconventional","Operator":"Canadian Natural Resources","Onshore/Offshore":"onshore"}},{"type":"Feature","geometry":{"type":"Point","coordinates":[-110.879,53.829]},"properties":{"Unit Name":"11730A/Cold Lake Oil and Gas Asset (Alberta, Canada)","Fuel type":"oil and gas","Country/Area":"Canada","Production Type":"unconventional","Operator":"Canadian Natural Resources","Onshore/Offshore":"onshore"}},{"type":"Feature","geometry":{"type":"Point","coordinates":[-110.69,53.563]},"properties":{"Unit Name":"11751A/Cold Lake Oil Asset (Alberta, Canada)","Fuel type":"oil","Country/Area":"Canada","Production Type":"unconventional","Status":"operating","Operator":"Canadian Natural Resources","Onshore/Offshore":"onshore"}},{"type":"Feature","geometry":{"type":"Point","coordinates":[-111.045,57.039]},"properties":{"Unit Name":"12015B/Athabasca Oil and Gas Asset (Alberta, Canada)","Fuel type":"oil and gas","Country/Area":"Canada","Production Type":"unconventional","Operator":"Suncor Energy","Onshore/Offshore":"onshore"}},{"type":"Feature","geometry":{"type":"Point","coordinates":[-110.827,55.425]},"properties":{"Unit Name":"12301C/Athabasca Oil and Gas Asset (Alberta, Canada)","Fuel type":"oil and gas","Country/Area":"Canada","Production Type":"unconventional","Operator":"Canadian Natural Resources","Onshore/Offshore":"onshore"}},{"type":"Feature","geometry":{"type":"Point","coordinates":[-113.7846,55.3456]},"properties":{"Unit Name":"12471U/Athabasca Oil Asset (Alberta, Canada)","Fuel type":"oil","Country/Area":"Canada","Production Type":"unconventional","Status":"operating","Operator":"Spur Petroleum","Onshore/Offshore":"onshore"}},{"type":"Feature","geometry":{"type":"Point","coordinates":[-113.6888,55.3211]},"properties":{"Unit Name":"12580B/Athabasca Oil Asset (Alberta, Canada)","Fuel type":"oil","Country/Area":"Canada","Production Type":"unconventional","Status":"operating","Operator":"Canadian Natural Resources","Onshore/Offshore":"onshore"}},{"type":"Feature","geometry":{"type":"Point","coordinates":[-116.084,56.585]},"properties":{"Unit Name":"12841A/Peace River Area 2 Oil and Gas Asset (Alberta, Canada)","Fuel type":"oil and gas","Country/Area":"Canada","Production Type":"unconventional","Operator":"Spur Petroleum","Onshore/Offshore":"onshore"}},{"type":"Feature","geometry":{"type":"Point","coordinates":[-110.141,53.574]},"properties":{"Unit Name":"13019/Cold Lake Oil and Gas Asset (Alberta, Canada)","Fuel type":"oil and gas","Country/Area":"Canada","Production Type":"unconventional","Operator":"Acceleware","Onshore/Offshore":"onshore"}},{"type":"Feature","geometry":{"type":"Point","coordinates":[-116.22,56.545]},"properties":{"Unit Name":"13020/Peace River Area 2 Oil and Gas Asset (Alberta, Canada)","Fuel type":"oil and gas","Country/Area":"Canada","Production Type":"unconventional","Operator":"Woodcote Oil","Onshore/Offshore":"onshore"}},{"type":"Feature","geometry":{"type":"Point","coordinates":[-113.7668,55.4395]},"properties":{"Unit Name":"13050E/Athabasca Oil Asset (Alberta, Canada)","Fuel type":"oil","Country/Area":"Canada","Production Type":"unconventional","Status":"operating","Operator":"Headwater Exploration","Onshore/Offshore":"onshore"}},{"type":"Feature","geometry":{"type":"Point","coordinates":[-113.7374,55.4444]},"properties":{"Unit Name":"13093J/Athabasca Oil Asset (Alberta, Canada)","Fuel type":"oil","Country/Area":"Canada","Production Type":"unconventional","Status":"operating","Operator":"Headwater Exploration","Onshore/Offshore":"onshore"}},{"type":"Feature","geometry":{"type":"Point","coordinates":[2.3301,58.9845]},"properties":{"Unit Name":"16/1-34 S (Lillefix) Oil and Gas Field (Norway)","Fuel type":"oil and gas","Country/Area":"Norway","Production Type":"conventional","Status":"discovered","Discovery year":"2021","Operator":"Aker BP","Onshore/Offshore":"offshore"}},{"type":"Feature","geometry":{"type":"Point","coordinates":[2.1843,58.7168]},"properties":{"Unit Name":"16/4-13 S Oil and Gas Field (Norway)","Fuel type":"oil and gas","Country/Area":"Norway","Production Type":"conventional","Status":"discovered","Discovery year":"2021","Operator":"Aker BP","Onshore/Offshore":"offshore"}},{"type":"Feature","geometry":{"type":"Point","coordinates":[2.0758,59.2927]},"properties":{"Unit Name":"25/7-11 S (Norma) Oil and Gas Field (Norway)","Fuel type":"oil and gas","Country/Area":"Norway","Production Type":"conventional","Status":"discovered","Discovery year":"2023","Operator":"DNO Norge","Onshore/Offshore":"offshore"}},{"type":"Feature","geometry":{"type":"Point","coordinates":[-69.2667,-38.2333]},"properties":{"Unit Name":"25 de Mayo - Medanito Sudeste LP Oil and Gas Field (La Pampa, Argentina)","Fuel type":"oil and gas","Country/Area":"Argentina","Status":"operating","Production start year":"2016","Operator":"Petroquimica Comodoro Rivadavia","Onshore/Offshore":"onshore","Basin":"Neuquina"}},{"type":"Feature","geometry":{"type":"Point","coordinates":[-67.855,-38.051]},"properties":{"Unit Name":"25 de Mayo - Medanito Sudeste RN Oil and Gas Field (Rio Negro, Argentina)","Fuel type":"oil and gas","Country/Area":"Argentina","Status":"operating","Production start year":"2016","Operator":"Petrolera Aconcagua Energia","Onshore/Offshore":"onshore","Basin":"Neuquina"}},{"type":"Feature","geometry":{"type":"Point","coordinates":[67.1525,38.2001]},"properties":{"Unit Name":"25 Years of Independence Gas Field (Uzbekistan)","Fuel type":"gas","Country/Area":"Uzbekistan","Production Type":"conventional","Status":"in-development","Discovery year":"1975","Operator":"Surhan Gas Chemical Operating","Onshore/Offshore":"onshore"}},{"type":"Feature","geometry":{"type":"Point","coordinates":[2.6304,60.9349]},"properties":{"Unit Name":"30/2-5 S (Atlantis) Oil and Gas Field (Norway)","Fuel type":"oil and gas","Country/Area":"Norway","Production Type":"conventional","Status":"discovered","Discovery year":"2024","Onshore/Offshore":"offshore"}},{"type":"Feature","geometry":{"type":"Point","coordinates":[2.5779,60.5299755]},"properties":{"Unit Name":"30/5-4 S (Oswig) Oil and Gas Field (Norway)","Fuel type":"oil and gas","Country/Area":"Norway","Production Type":"conventional","Status":"discovered","Discovery year":"2022","Operator":"OMV (Norge)","Onshore/Offshore":"offshore"}},{"type":"Feature","geometry":{"type":"Point","coordinates":[3.2868,60.9053]},"properties":{"Unit Name":"31/1-2 S (Røver Nord) Oil and Gas Field (Norway)","Fuel type":"oil and gas","Country/Area":"Norway","Production Type":"conventional","Status":"discovered","Discovery year":"2021","Operator":"Equinor Energy","Onshore/Offshore":"offshore"}},{"type":"Feature","geometry":{"type":"Point","coordinates":[3.2466,60.8781]},"properties":{"Unit Name":"31/1-3 S (Røver Sør) Oil and Gas Field (Norway)","Fuel type":"oil and gas","Country/Area":"Norway","Production Type":"conventional","Status":"discovered","Discovery year":"2023","Operator":"Equinor Energy","Onshore/Offshore":"offshore"}},{"type":"Feature","geometry":{"type":"Point","coordinates":[2.0445,61.552]},"properties":{"Unit Name":"34/4-15 S & A Oil Field (Norway)","Fuel type":"oil","Country/Area":"Norway","Production Type":"conventional","Status":"discovered","Discovery year":"2020","Operator":"Vår Energi Norge","Onshore/Offshore":"offshore"}},{"type":"Feature","geometry":{"type":"Point","coordinates":[2.7569,61.5851]},"properties":{"Unit Name":"34/6-2 S (Garantiana) Oil and Gas Field (Norway)","Fuel type":"oil and gas","Country/Area":"Norway","Production Type":"conventional","Status":"discovered","Discovery year":"2012","Operator":"Equinor Energy","Onshore/Offshore":"offshore"}},{"type":"Feature","geometry":{"type":"Point","coordinates":[7.4397,65.4035]},"properties":{"Unit Name":"35/10-10 S (Carmen) Oil and Gas Field (Norway)","Fuel type":"oil and gas","Country/Area":"Norway","Production Type":"conventional","Status":"discovered","Discovery year":"2023","Operator":"Wellesley Petroleum","Onshore/Offshore":"offshore"}},{"type":"Feature","geometry":{"type":"Point","coordinates":[3.3006,61.0225062]},"properties":{"Unit Name":"35/10-7 S (Toppand) Oil and Gas Field (Norway)","Fuel type":"oil and gas","Country/Area":"Norway","Production Type":"conventional","Status":"discovered","Discovery year":"2021","Operator":"Equinor Energy","Onshore/Offshore":"offshore"}},{"type":"Feature","geometry":{"type":"Point","coordinates":[3.2602,61.1122633]},"properties":{"Unit Name":"35/10-8 S (Kveikje) Oil and Gas Field (Norway)","Fuel type":"oil and gas","Country/Area":"Norway","Production Type":"conventional","Status":"discovered","Discovery year":"2022","Operator":"Equinor Energy","Onshore/Offshore":"offshore"}},{"type":"Feature","geometry":{"type":"Point","coordinates":[6.7654,64.9320673]},"properties":{"Unit Name":"6406/3-10 A Oil and Gas Field (Norway)","Fuel type":"oil and gas","Country/Area":"Norway","Production Type":"conventional","Status":"discovered","Discovery year":"2021","Operator":"Wintershall Dea Norge","Onshore/Offshore":"offshore"}},{"type":"Feature","geometry":{"type":"Point","coordinates":[6.8133,64.4727]},"properties":{"Unit Name":"6406/9-1 Linnorm Oil and Gas Field (Norway)","Fuel type":"oil and gas","Country/Area":"Norway","Production Type":"conventional","Status":"discovered","Discovery year":"2005","Operator":"A/S Norske Shell","Onshore/Offshore":"offshore"}},{"type":"Feature","geometry":{"type":"Point","coordinates":[7.1255,64.4187]},"properties":{"Unit Name":"6407/7-8 (Noatun) Oil and Gas Field (Norway)","Fuel type":"oil and gas","Country/Area":"Norway","Production Type":"conventional","Status":"discovered","Discovery year":"2008","Operator":"Equinor Energy","Onshore/Offshore":"offshore"}},{"type":"Feature","geometry":{"type":"Point","coordinates":[7.5562,65.7916966]},"properties":{"Unit Name":"6507/2-6 (Storjo) Oil and Gas Field (Norway)","Fuel type":"oil and gas","Country/Area":"Norway","Production Type":"conventional","Status":"discovered","Discovery year":"2022","Operator":"Aker BP","Onshore/Offshore":"offshore"}},{"type":"Feature","geometry":{"type":"Point","coordinates":[5.0534,66.8385298]},"properties":{"Unit Name":"6605/1-2 S (Obelix) Oil and Gas Field (Norway)","Fuel type":"oil and gas","Country/Area":"Norway","Production Type":"conventional","Status":"discovered","Discovery year":"2022","Operator":"Equinor Energy","Onshore/Offshore":"offshore"}},{"type":"Feature","geometry":{"type":"Point","coordinates":[20.7728,71.1271]},"properties":{"Unit Name":"7120/12-2 (Alke Sør) Oil and Gas Field (Norway)","Fuel type":"oil and gas","Country/Area":"Norway","Production Type":"conventional","Status":"discovered","Discovery year":"1981","Operator":"Vår Energi","Onshore/Offshore":"offshore"}},{"type":"Feature","geometry":{"type":"Point","coordinates":[22.9771,71.3910386]},"properties":{"Unit Name":"7122/9-1 (Lupa) Oil and Gas Field (Norway)","Fuel type":"oil and gas","Country/Area":"Norway","Production Type":"conventional","Status":"discovered","Discovery year":"2022","Operator":"Vår Energi","Onshore/Offshore":"offshore"}},{"type":"Feature","geometry":{"type":"Point","coordinates":[20.4754,71.9987]},"properties":{"Unit Name":"7220/11-1 (Alta) Oil and Gas Field (Norway)","Fuel type":"oil and gas","Country/Area":"Norway","Production Type":"conventional","Status":"discovered","Discovery year":"2014","Operator":"Aker BP","Onshore/Offshore":"offshore"}},{"type":"Feature","geometry":{"type":"Point","coordinates":[20.1405,72.4181831]},"properties":{"Unit Name":"7220/7-4 (Isflak) Oil and Gas Field (Norway)","Fuel type":"oil and gas","Country/Area":"Norway","Production Type":"conventional","Status":"discovered","Discovery year":"2021","Operator":"Equinor Energy","Onshore/Offshore":"offshore"}},{"type":"Feature","geometry":{"type":"Point","coordinates":[20.3658,72.4498808]},"properties":{"Unit Name":"7220/8-2 S (Snøfonn Nord) Oil and Gas Field (Norway)","Fuel type":"oil and gas","Country/Area":"Norway","Production Type":"conventional","Status":"discovered","Discovery year":"2022","Operator":"Equinor Energy","Onshore/Offshore":"offshore"}},{"type":"Feature","geometry":{"type":"Point","coordinates":[68.5575,73.1336]},"properties":{"Unit Name":"75 Years of Victory Gas Field (Russia)","Fuel type":"gas","Country/Area":"Russia","Production Type":"conventional","Status":"discovered","Discovery year":"2020","Operator":"Gazprom","Onshore/Offshore":"offshore","Basin":"West Siberian"}},{"type":"Feature","geometry":{"type":"Point","coordinates":[-110.175,53.592]},"properties":{"Unit Name":"7990P/Cold Lake Oil Asset (Alberta, Canada)","Fuel type":"oil","Country/Area":"Canada","Production Type":"unconventional","Status":"operating","Operator":"Husky Oil Operations","Onshore/Offshore":"onshore"}},{"type":"Feature","geometry":{"type":"Point","coordinates":[-116.7683,56.3582]},"properties":{"Unit Name":"8143GG/Peace River Area 2 Oil Asset (Alberta, Canada)","Fuel type":"oil","Country/Area":"Canada","Production Type":"unconventional","Status":"operating","Operator":"Canadian Natural Upgrading","Onshore/Offshore":"onshore"}},{"type":"Feature","geometry":{"type":"Point","coordinates":[-110.511,54.371]},"properties":{"Unit Name":"8179D/Cold Lake Oil Asset (Alberta, Canada)","Fuel type":"oil","Country/Area":"Canada","Production Type":"unconventional","Status":"operating","Operator":"Canadian Natural Resources","Onshore/Offshore":"onshore"}},{"type":"Feature","geometry":{"type":"Point","coordinates":[-110.72,54.395]},"properties":{"Unit Name":"8536A/Cold Lake Oil Asset (Alberta, Canada)","Fuel type":"oil","Country/Area":"Canada","Production Type":"unconventional","Status":"operating","Operator":"Canadian Natural Resources","Onshore/Offshore":"onshore"}},{"type":"Feature","geometry":{"type":"Point","coordinates":[-112.677,56.69]},"properties":{"Unit Name":"8584B/Athabasca Oil and Gas Asset (Alberta, Canada)","Fuel type":"oil and gas","Country/Area":"Canada","Production Type":"unconventional","Operator":"ConocoPhillips Canada Resources","Onshore/Offshore":"onshore"}},{"type":"Feature","geometry":{"type":"Point","coordinates":[-110.8159,55.556]},"properties":{"Unit Name":"8591FFFF/Athabasca Oil Asset (Alberta, Canada)","Fuel type":"oil","Country/Area":"Canada","Production Type":"unconventional","Status":"operating","Operator":"Cenovus Energy","Onshore/Offshore":"onshore"}},{"type":"Feature","geometry":{"type":"Point","coordinates":[-110.252,53.715]},"properties":{"Unit Name":"8611B/Cold Lake Oil and Gas Asset (Alberta, Canada)","Fuel type":"oil and gas","Country/Area":"Canada","Production Type":"unconventional","Operator":"Canadian Natural Resources","Onshore/Offshore":"onshore"}},{"type":"Feature","geometry":{"type":"Point","coordinates":[-110.645,55.07]},"properties":{"Unit Name":"8623Iiii/Athabasca Oil and Gas Asset (Alberta, Canada)","Fuel type":"oil and gas","Country/Area":"Canada","Production Type":"unconventional","Operator":"Cenovus Energy","Onshore/Offshore":"onshore"}},{"type":"Feature","geometry":{"type":"Point","coordinates":[-110.797,53.65]},"properties":{"Unit Name":"9266B/Cold Lake Oil Asset (Alberta, Canada)","Fuel type":"oil","Country/Area":"Canada","Production Type":"unconventional","Status":"operating","Operator":"Harvest Operations","Onshore/Offshore":"onshore"}},{"type":"Feature","geometry":{"type":"Point","coordinates":[-110.493,54.332]},"properties":{"Unit Name":"9278P/Cold Lake Oil Asset (Alberta, Canada)","Fuel type":"oil","Country/Area":"Canada","Production Type":"unconventional","Status":"operating","Operator":"Baytex Energy","Onshore/Offshore":"onshore"}},{"type":"Feature","geometry":{"type":"Point","coordinates":[-110.883,54.016]},"properties":{"Unit Name":"9387S/Cold Lake Oil Asset (Alberta, Canada)","Fuel type":"oil","Country/Area":"Canada","Production Type":"unconventional","Status":"operating","Operator":"Canadian Natural Resources","Onshore/Offshore":"onshore"}},{"type":"Feature","geometry":{"type":"Point","coordinates":[-113.267,55.914]},"properties":{"Unit Name":"9466R/Athabasca Oil Asset (Alberta, Canada)","Fuel type":"oil","Country/Area":"Canada","Production Type":"unconventional","Status":"operating","Operator":"Canadian Natural Resources","Onshore/Offshore":"onshore"}},{"type":"Feature","geometry":{"type":"Point","coordinates":[-110.679,54.371]},"properties":{"Unit Name":"9631C/Cold Lake Oil and Gas Asset (Alberta, Canada)","Fuel type":"oil and gas","Country/Area":"Canada","Production Type":"unconventional","Operator":"Devon Canada","Onshore/Offshore":"onshore"}},{"type":"Feature","geometry":{"type":"Point","coordinates":[-113.0296,56.1322]},"properties":{"Unit Name":"9673Q/Athabasca Oil Asset (Alberta, Canada)","Fuel type":"oil","Country/Area":"Canada","Production Type":"unconventional","Status":"operating","Operator":"Canadian Natural Resources","Onshore/Offshore":"onshore"}},{"type":"Feature","geometry":{"type":"Point","coordinates":[-116.729,56.341]},"properties":{"Unit Name":"9874B/Peace River Area 2 Oil and Gas Asset (Alberta, Canada)","Fuel type":"oil and gas","Country/Area":"Canada","Production Type":"unconventional","Operator":"Shell Canada Energy","Onshore/Offshore":"onshore"}},{"type":"Feature","geometry":{"type":"Point","coordinates":[3.798,55.397]},"properties":{"Unit Name":"A12-FA Gas Field (Netherlands)","Fuel type":"gas","Country/Area":"Netherlands","Production Type":"conventional","Status":"operating","Discovery year":"1988","Production start year":"2007","Operator":"Petrogas E&P Netherlands","Onshore/Offshore":"offshore"}},{"type":"Feature","geometry":{"type":"Point","coordinates":[3.827,55.309]},"properties":{"Unit Name":"A15-FA Gas Field (Netherlands)","Fuel type":"gas","Country/Area":"Netherlands","Production Type":"conventional","Status":"operating","Discovery year":"1992","Production start year":"2024","Operator":"Petrogas E&P Netherlands","Onshore/Offshore":"offshore"}},{"type":"Feature","geometry":{"type":"Point","coordinates":[3.823,55.116]},"properties":{"Unit Name":"A18-FA Gas Field (Netherlands)","Fuel type":"gas","Country/Area":"Netherlands","Production Type":"conventional","Status":"operating","Discovery year":"1987","Production start year":"2015","Operator":"Petrogas E&P Netherlands","Onshore/Offshore":"offshore"}},{"type":"Feature","geometry":{"type":"Point","coordinates":[7.0193,67.0716]},"properties":{"Unit Name":"Aasta Hansteen Oil and Gas Field (Norway)","Fuel type":"oil and gas","Country/Area":"Norway","Production Type":"conventional","Status":"operating","Discovery year":"1997","Production start year":"2018","Operator":"Equinor Energy","Onshore/Offshore":"offshore"}},{"type":"Feature","geometry":{"type":"Point","coordinates":[130.4554,-9.1706]},"properties":{"Unit Name":"Abadi Oil and Gas Field (Indonesia)","Fuel type":"oil and gas","Country/Area":"Indonesia","Production Type":"conventional","Status":"discovered","Discovery year":"2000","Operator":"INPEX","Onshore/Offshore":"offshore"}},{"type":"Feature","geometry":{"type":"Point","coordinates":[-39.61210971064001,-21.35976114724732]},"properties":{"Unit Name":"Abalone Oil and Gas Field (Espírito Santo, Brazil)","Fuel type":"oil and gas","Country/Area":"Brazil","Production Type":"conventional","Status":"operating","Discovery year":"2001","Production start year":"2009","Operator":"Shell Brasil Petroleo","Onshore/Offshore":"offshore","Basin":"Campos"}},{"type":"Feature","geometry":{"type":"Point","coordinates":[8.373,4.565]},"properties":{"Unit Name":"Abana Oil and Gas Field (Nigeria)","Fuel type":"oil and gas","Country/Area":"Nigeria","Production Type":"conventional","Status":"operating","Operator":"MoniPulo","Onshore/Offshore":"offshore"}},{"type":"Feature","geometry":{"type":"Point","coordinates":[7.642,4.229]},"properties":{"Unit Name":"Abang Oil Field (Nigeria)","Fuel type":"oil","Country/Area":"Nigeria","Production Type":"conventional","Status":"operating","Discovery year":"2002","Operator":"Mobil Producing Nigeria Unlimited","Onshore/Offshore":"offshore"}},{"type":"Feature","geometry":{"type":"Point","coordinates":[47.2725,32.6871]},"properties":{"Unit Name":"Aban Oil Field (Iran)","Fuel type":"oil","Country/Area":"Iran","Production Type":"conventional","Status":"operating","Onshore/Offshore":"onshore"}},{"type":"Feature","geometry":{"type":"Point","coordinates":[47.2725,32.6871]},"properties":{"Unit Name":"Aban Redevelopment Oil Asset (Iran)","Fuel type":"oil","Country/Area":"Iran","Production Type":"conventional","Status":"in-development","Onshore/Offshore":"onshore"}},{"type":"Feature","geometry":{"type":"Point","coordinates":[-74.5399,6.1662]},"properties":{"Unit Name":"Abarco Oil and Gas Field (Boyaca, Colombia)","Fuel type":"oil and gas","Country/Area":"Colombia","Production Type":"conventional","Status":"operating","Operator":"Ecopetrol","Onshore/Offshore":"onshore"}},{"type":"Feature","geometry":{"type":"Point","coordinates":[-92.1605,29.994]},"properties":{"Unit Name":"Abbeville - Dunn Oil and Gas Asset (Louisiana, United States)","Fuel type":"oil and gas","Country/Area":"United States","Status":"operating","Discovery year":"1937","Operator":"Dunn Exploration","Onshore/Offshore":"onshore","Basin":"Western Gulf"}},{"type":"Feature","geometry":{"type":"Point","coordinates":[-108.521,50.884]},"properties":{"Unit Name":"Abbey East Milk River Gas Pool (Saskatchewan, Canada)","Fuel type":"gas","Country/Area":"Canada","Status":"operating","Onshore/Offshore":"onshore"}},{"type":"Feature","geometry":{"type":"Point","coordinates":[-108.566,50.731]},"properties":{"Unit Name":"Abbey Milk River Gas Pool (Saskatchewan, Canada)","Fuel type":"gas","Country/Area":"Canada","Status":"operating","Onshore/Offshore":"onshore"}},{"type":"Feature","geometry":{"type":"Point","coordinates":[-108.799,50.891]},"properties":{"Unit Name":"Abbey North Milk River Gas Pool (Saskatchewan, Canada)","Fuel type":"gas","Country/Area":"Canada","Status":"operating","Onshore/Offshore":"onshore"}},{"type":"Feature","geometry":{"type":"Point","coordinates":[-108.947,50.811]},"properties":{"Unit Name":"Abbey West Milk River Gas Pool (Saskatchewan, Canada)","Fuel type":"gas","Country/Area":"Canada","Status":"mothballed","Onshore/Offshore":"onshore"}},{"type":"Feature","geometry":{"type":"Point","coordinates":[47.7749,30.045]},"properties":{"Unit Name":"Abdalli Oil Field (Kuwait)","Fuel type":"oil","Country/Area":"Kuwait","Status":"operating","Operator":"Kuwait Oil Company","Onshore/Offshore":"onshore"}},{"type":"Feature","geometry":{"type":"Point","coordinates":[47.6854,29.0834]},"properties":{"Unit Name":"Abduliyah Oil and Gas Field (Kuwait)","Fuel type":"oil and gas","Country/Area":"Kuwait","Status":"operating","Operator":"Kuwait Oil Company","Onshore/Offshore":"onshore"}},{"type":"Feature","geometry":{"type":"Point","coordinates":[-109.81,53.248]},"properties":{"Unit Name":"Aberfeldy GP Oil Pool (Saskatchewan, Canada)","Fuel type":"oil","Country/Area":"Canada","Status":"operating","Discovery year":"1981","Onshore/Offshore":"onshore"}},{"type":"Feature","geometry":{"type":"Point","coordinates":[-109.81,53.246]},"properties":{"Unit Name":"Aberfeldy South Sparky Oil Pool (Saskatchewan, Canada)","Fuel type":"oil","Country/Area":"Canada","Status":"operating","Discovery year":"1956","Onshore/Offshore":"onshore"}},{"type":"Feature","geometry":{"type":"Point","coordinates":[1.8872,56.7955]},"properties":{"Unit Name":"Abigail Gas Field (United Kingdom)","Fuel type":"gas","Country/Area":"United Kingdom","Status":"operating","Production start year":"2022","Operator":"Ithaca Energy","Onshore/Offshore":"offshore"}},{"type":"Feature","geometry":{"type":"Point","coordinates":[5.296,5.663]},"properties":{"Unit Name":"Abiteye Oil and Gas Field (Nigeria)","Fuel type":"oil and gas","Country/Area":"Nigeria","Production Type":"conventional","Status":"operating","Discovery year":"1970","Operator":"Chevron Nigeria","Onshore/Offshore":"onshore"}},{"type":"Feature","geometry":{"type":"Point","coordinates":[-92.1876,19.2491]},"properties":{"Unit Name":"Abkatún Oil and Gas Field (Federal Offshore, Mexico)","Fuel type":"oil and gas","Country/Area":"Mexico","Status":"operating","Discovery year":"1977","Production start year":"1980","Operator":"Petróleos Mexicanos","Onshore/Offshore":"offshore","Basin":"Cuencas del Sureste"}},{"type":"Feature","geometry":{"type":"Point","coordinates":[4.466,5.761]},"properties":{"Unit Name":"Abo Oil and Gas Field (Nigeria)","Fuel type":"oil and gas","Country/Area":"Nigeria","Production Type":"conventional","Status":"operating","Production start year":"2003","Operator":"Nigerian Agip Exploration","Onshore/Offshore":"offshore"}},{"type":"Feature","geometry":{"type":"Point","coordinates":[49.7841,26.1687]},"properties":{"Unit Name":"Abqaiq Oil Field (Saudi Arabia)","Fuel type":"oil","Country/Area":"Saudi Arabia","Status":"operating","Discovery year":"1940","Production start year":"1946","Operator":"Saudi Arabian Oil","Onshore/Offshore":"onshore"}},{"type":"Feature","geometry":{"type":"Point","coordinates":[50.798,40.009]},"properties":{"Unit Name":"Absheron Oil and Gas Field (Azerbaijan)","Fuel type":"oil and gas","Country/Area":"Azerbaijan","Production Type":"conventional","Status":"operating","Discovery year":"2011","Production start year":"2023","Operator":"Joint Operating Company of Absheron Petroleum","Onshore/Offshore":"offshore"}},{"type":"Feature","geometry":{"type":"Point","coordinates":[48.5263,31.1738]},"properties":{"Unit Name":"Abteymour Oil Field (Iran)","Fuel type":"oil","Country/Area":"Iran","Production Type":"conventional","Status":"operating","Discovery year":"1968","Production start year":"1991","Operator":"Karoon Oil and Gas Production","Onshore/Offshore":"onshore"}},{"type":"Feature","geometry":{"type":"Point","coordinates":[53.313,24.422]},"properties":{"Unit Name":"Abu Al Bukhoosh Oil and Gas Field (United Arab Emirates)","Fuel type":"oil and gas","Country/Area":"United Arab Emirates","Production Type":"conventional","Status":"operating","Discovery year":"1969","Production start year":"1972","Operator":"ADNOC Offshore","Onshore/Offshore":"offshore"}},{"type":"Feature","geometry":{"type":"Point","coordinates":[18.37,26.418]},"properties":{"Unit Name":"Abu Attifel Oil and Gas Field (Libya)","Fuel type":"oil and gas","Country/Area":"Libya","Production Type":"conventional","Status":"operating","Discovery year":"1967","Production start year":"1972","Operator":"Mellitah Oil & Gas","Onshore/Offshore":"onshore","Basin":"Sirte"}},{"type":"Feature","geometry":{"type":"Point","coordinates":[55.8542,21.178]},"properties":{"Unit Name":"Abu Butabul Oil and Gas Field (Oman)","Fuel type":"oil and gas","Country/Area":"Oman","Production Type":"conventional","Status":"operating","Discovery year":"1998","Production start year":"2014","Operator":"Oman Oil Company Exploration & Production","Onshore/Offshore":"onshore"}},{"type":"Feature","geometry":{"type":"Point","coordinates":[55.8542,21.178]},"properties":{"Unit Name":"Abu Butabu North Oil and Gas Field (Oman)","Fuel type":"oil and gas","Country/Area":"Oman","Production Type":"unconventional","Status":"operating","Discovery year":"2017","Operator":"Oman Oil Company Exploration and Production","Onshore/Offshore":"onshore"}},{"type":"Feature","geometry":{"type":"Point","coordinates":[28.5337,29.6723]},"properties":{"Unit Name":"Abu El Gharadig Oil and Gas Field (Egypt)","Fuel type":"oil and gas","Country/Area":"Egypt","Production Type":"conventional","Status":"operating","Discovery year":"1969","Production start year":"1973","Operator":"Khalda","Onshore/Offshore":"onshore"}},{"type":"Feature","geometry":{"type":"Point","coordinates":[47.306,32.365]},"properties":{"Unit Name":"Abu Gharb Oil Field (Iraq)","Fuel type":"oil","Country/Area":"Iraq","Production Type":"conventional","Status":"operating","Discovery year":"1969","Production start year":"1976","Operator":"CNOOC","Onshore/Offshore":"onshore"}},{"type":"Feature","geometry":{"type":"Point","coordinates":[49.0051,27.312]},"properties":{"Unit Name":"Abu Hadriya Oil Field (Saudi Arabia)","Fuel type":"oil","Country/Area":"Saudi Arabia","Production Type":"conventional","Status":"operating","Discovery year":"1940","Production start year":"1963","Operator":"Saudi Arabian Oil","Onshore/Offshore":"onshore"}},{"type":"Feature","geometry":{"type":"Point","coordinates":[31.1783,31.3612]},"properties":{"Unit Name":"Abu Madi Gas Field (Egypt)","Fuel type":"gas","Country/Area":"Egypt","Production Type":"conventional","Status":"operating","Discovery year":"1967","Production start year":"1975","Operator":"MADI","Onshore/Offshore":"onshore"}},{"type":"Feature","geometry":{"type":"Point","coordinates":[33.1671,28.864]},"properties":{"Unit Name":"Abu Rudies-Sidri Oil Field (Egypt)","Fuel type":"oil","Country/Area":"Egypt","Production Type":"conventional","Status":"operating","Discovery year":"1945","Operator":"Petrobel","Onshore/Offshore":"offshore"}},{"type":"Feature","geometry":{"type":"Point","coordinates":[50.4312,26.79]},"properties":{"Unit Name":"Abu Sa`fah Oil Field (Saudi Arabia, Bahrain)","Fuel type":"oil","Country/Area":"Saudi Arabia","Production Type":"conventional","Status":"operating","Discovery year":"1963","Production start year":"1966","Operator":"Saudi Arabian Oil","Onshore/Offshore":"offshore"}},{"type":"Feature","geometry":{"type":"Point","coordinates":[49.532,29.292]},"properties":{"Unit Name":"Abuzar Oil Field (Iran)","Fuel type":"oil","Country/Area":"Iran","Production Type":"conventional","Status":"operating","Discovery year":"1961","Production start year":"1976","Operator":"Iranian Offshore Oil","Onshore/Offshore":"offshore"}},{"type":"Feature","geometry":{"type":"Point","coordinates":[11.9873,-7.662]},"properties":{"Unit Name":"Acacia Oil and Gas Field (Angola)","Fuel type":"oil and gas","Country/Area":"Angola","Production Type":"conventional","Status":"operating","Discovery year":"2003","Production start year":"2011","Operator":"TotalEnergies E&P Angola","Onshore/Offshore":"offshore"}},{"type":"Feature","geometry":{"type":"Point","coordinates":[-76.9148,0.3235]},"properties":{"Unit Name":"Acae San Miguel Oil and Gas Field (Putumayo, Colombia)","Fuel type":"oil and gas","Country/Area":"Colombia","Production Type":"conventional","Status":"operating","Discovery year":"1965","Operator":"Ecopetrol","Onshore/Offshore":"onshore"}},{"type":"Feature","geometry":{"type":"Point","coordinates":[-63.5812,9.1933]},"properties":{"Unit Name":"Acema Oil Field (Venezuela)","Fuel type":"oil","Country/Area":"Venezuela","Status":"operating","Discovery year":"1966","Operator":"Petrokariña","Onshore/Offshore":"onshore","Basin":"Maturin"}},{"type":"Feature","geometry":{"type":"Point","coordinates":[-113.662,53.525]},"properties":{"Unit Name":"Acheson East Oil and Gas Field (Alberta, Canada)","Fuel type":"oil and gas","Country/Area":"Canada","Status":"operating","Discovery year":"1950","Onshore/Offshore":"onshore"}},{"type":"Feature","geometry":{"type":"Point","coordinates":[-113.752,53.53]},"properties":{"Unit Name":"Acheson Oil and Gas Field (Alberta, Canada)","Fuel type":"oil and gas","Country/Area":"Canada","Status":"operating","Discovery year":"1950","Onshore/Offshore":"onshore"}},{"type":"Feature","geometry":{"type":"Point","coordinates":[75.34,60.07]},"properties":{"Unit Name":"Achimovskoye Oil and Gas Field (Khanty-Mansi Autonomous Okrug, Russia)","Fuel type":"oil and gas","Country/Area":"Russia","Production Type":"conventional","Status":"operating","Discovery year":"1981","Operator":"NK Slavneft-Megionneftegaz","Onshore/Offshore":"onshore"}},{"type":"Feature","geometry":{"type":"Point","coordinates":[1.682,56.772]},"properties":{"Unit Name":"Achmelvich Oil and Gas Field (United Kingdom)","Fuel type":"oil and gas","Country/Area":"United Kingdom","Production Type":"conventional","Status":"discovered","Discovery year":"2018","Onshore/Offshore":"offshore"}},{"type":"Feature","geometry":{"type":"Point","coordinates":[-73.566,7.907]},"properties":{"Unit Name":"Acordionero Oil and Gas Field (Cesar, Colombia)","Fuel type":"oil and gas","Country/Area":"Colombia","Production Type":"conventional","Status":"operating","Discovery year":"2013","Operator":"Gran Tierra Energy Colombia Gmbh Sucursal Colombia","Onshore/Offshore":"onshore","Basin":"Middle Magdalena"}},{"type":"Feature","geometry":{"type":"Point","coordinates":[103.2243,8.1194]},"properties":{"Unit Name":"Ac Quy Oil and Gas Field (Vietnam)","Fuel type":"oil and gas","Country/Area":"Vietnam","Production Type":"conventional","Status":"in-development","Discovery year":"2002","Operator":"Vietnam Oil and Gas Group","Onshore/Offshore":"offshore"}},{"type":"Feature","geometry":{"type":"Point","coordinates":[-94.2227,18.0237]},"properties":{"Unit Name":"Actul Oil and Gas Field (Mexico)","Fuel type":"oil and gas","Country/Area":"Mexico","Status":"operating","Onshore/Offshore":"onshore"}},{"type":"Feature","geometry":{"type":"Point","coordinates":[-71.103,5.067]},"properties":{"Unit Name":"Adalia Oil Field (Casanare, Colombia)","Fuel type":"oil","Country/Area":"Colombia","Production Type":"conventional","Status":"operating","Operator":"Parex Resources Colombia Ltd. Sucursal","Onshore/Offshore":"onshore"}},{"type":"Feature","geometry":{"type":"Point","coordinates":[67.5986,38.7366]},"properties":{"Unit Name":"Adamtash Oil and Gas Field (Uzbekistan)","Fuel type":"oil and gas","Country/Area":"Uzbekistan","Production Type":"conventional","Status":"operating","Production start year":"2017","Operator":"Lukoil Overseas","Onshore/Offshore":"onshore"}},{"type":"Feature","geometry":{"type":"Point","coordinates":[7.2907,4.8765]},"properties":{"Unit Name":"Adanga South Oil and Gas Field (Nigeria)","Fuel type":"oil and gas","Country/Area":"Nigeria","Production Type":"conventional","Status":"operating","Operator":"NNPC","Onshore/Offshore":"onshore"}},{"type":"Feature","geometry":{"type":"Point","coordinates":[-63.3366,8.9193]},"properties":{"Unit Name":"Adas Oil and Gas Field (Venezuela)","Fuel type":"oil and gas","Country/Area":"Venezuela","Status":"operating","Discovery year":"1954","Operator":"Petrolera Vencupet","Onshore/Offshore":"onshore"}},{"type":"Feature","geometry":{"type":"Point","coordinates":[-93.1434,32.5138]},"properties":{"Unit Name":"Ada - Tanos Oil and Gas Asset (Louisiana, United States)","Fuel type":"oil and gas","Country/Area":"United States","Status":"operating","Discovery year":"1944","Operator":"Tanos Exploration","Onshore/Offshore":"onshore","Basin":"TX-LA-MS Salt"}},{"type":"Feature","geometry":{"type":"Point","coordinates":[4.8633,55.8063]},"properties":{"Unit Name":"Adda Oil and Gas Field (Denmark)","Fuel type":"oil and gas","Country/Area":"Denmark","Production Type":"conventional","Status":"discovered","Discovery year":"1977","Operator":"TotalEnergies","Onshore/Offshore":"offshore"}},{"type":"Feature","geometry":{"type":"Point","coordinates":[-111.17,49.076]},"properties":{"Unit Name":"Aden Oil and Gas Field (Alberta, Canada)","Fuel type":"oil and gas","Country/Area":"Canada","Status":"operating","Discovery year":"1944","Onshore/Offshore":"onshore"}},{"type":"Feature","geometry":{"type":"Point","coordinates":[73.1768,33.1537]},"properties":{"Unit Name":"Adhi Oil and Gas Field (Pakistan)","Fuel type":"oil and gas","Country/Area":"Pakistan","Production Type":"conventional","Status":"operating","Discovery year":"1978","Operator":"Pakistan Petroleum","Onshore/Offshore":"onshore"}},{"type":"Feature","geometry":{"type":"Point","coordinates":[-122.74,58.16]},"properties":{"Unit Name":"Adsett Gas Field (British Columbia, Canada)","Fuel type":"gas","Country/Area":"Canada","Discovery year":"1972","Production start year":"2008","Onshore/Offshore":"onshore"}},{"type":"Feature","geometry":{"type":"Point","coordinates":[7.7125,65.9373]},"properties":{"Unit Name":"Ærfugl Nord Oil and Gas Field (Norway)","Fuel type":"oil and gas","Country/Area":"Norway","Production Type":"conventional","Status":"operating","Discovery year":"2012","Production start year":"2021","Operator":"Aker BP","Onshore/Offshore":"offshore"}},{"type":"Feature","geometry":{"type":"Point","coordinates":[7.5526,65.7163]},"properties":{"Unit Name":"Ærfugl Oil and Gas Field (Norway)","Fuel type":"oil and gas","Country/Area":"Norway","Production Type":"conventional","Status":"operating","Discovery year":"2000","Production start year":"2013","Operator":"Aker BP","Onshore/Offshore":"offshore"}},{"type":"Feature","geometry":{"type":"Point","coordinates":[-112.467,51.477]},"properties":{"Unit Name":"Aerial Oil and Gas Field (Alberta, Canada)","Fuel type":"oil and gas","Country/Area":"Canada","Status":"operating","Discovery year":"1904","Onshore/Offshore":"onshore"}},{"type":"Feature","geometry":{"type":"Point","coordinates":[116.549432,46.155059]},"properties":{"Unit Name":"Aer Oil Field (Inner Mongolia, China)","Fuel type":"oil","Country/Area":"China","Production Type":"conventional","Status":"operating","Operator":"PetroChina Huabei Oilfield Company Erlian Branch","Onshore/Offshore":"onshore"}},{"type":"Feature","geometry":{"type":"Point","coordinates":[115.667533,44.575509]},"properties":{"Unit Name":"Aershan Oil Field (Inner Mongolia, China)","Fuel type":"oil","Country/Area":"China","Production Type":"conventional","Status":"operating","Discovery year":"1981","Production start year":"1988","Operator":"PetroChina Huabei Oilfield Company Erlian Branch","Onshore/Offshore":"onshore"}},{"type":"Feature","geometry":{"type":"Point","coordinates":[7.321,4.801]},"properties":{"Unit Name":"Afam Oil Field (Nigeria)","Fuel type":"oil","Country/Area":"Nigeria","Production Type":"conventional","Status":"operating","Operator":"NNPC E&P","Onshore/Offshore":"onshore"}},{"type":"Feature","geometry":{"type":"Point","coordinates":[6.0273,5.5453]},"properties":{"Unit Name":"Afiesere/Eriemu Oil Field (Nigeria)","Fuel type":"oil","Country/Area":"Nigeria","Production Type":"conventional","Status":"operating","Discovery year":"1961","Production start year":"1964","Operator":"Shoreline Natural Resources","Onshore/Offshore":"onshore"}},{"type":"Feature","geometry":{"type":"Point","coordinates":[-1.9632776,4.3510864]},"properties":{"Unit Name":"Afina Oil Field (Ghana)","Fuel type":"oil","Country/Area":"Ghana","Production Type":"conventional","Status":"discovered","Discovery year":"2019","Operator":"Springfield Group","Onshore/Offshore":"offshore"}},{"type":"Feature","geometry":{"type":"Point","coordinates":[76.0989,61.4339]},"properties":{"Unit Name":"Aganskoye Oil and Gas Field (Khanty-Mansi Autonomous Okrug, Russia)","Fuel type":"oil and gas","Country/Area":"Russia","Production Type":"conventional","Status":"operating","Discovery year":"1965","Operator":"NK Slavneft-Megionneftegaz","Onshore/Offshore":"onshore"}},{"type":"Feature","geometry":{"type":"Point","coordinates":[-76.5713,0.8446]},"properties":{"Unit Name":"Agapanto Oil and Gas Field (Putumayo, Colombia)","Fuel type":"oil and gas","Country/Area":"Colombia","Production Type":"conventional","Status":"operating","Operator":"Emerald Energy Plc Sucursal Colombia","Onshore/Offshore":"onshore"}},{"type":"Feature","geometry":{"type":"Point","coordinates":[-92.8905,17.7269]},"properties":{"Unit Name":"Agave Oil and Gas Field (Tabasco, Mexico)","Fuel type":"oil and gas","Country/Area":"Mexico","Status":"operating","Discovery year":"1976","Operator":"Petróleos Mexicanos","Onshore/Offshore":"onshore","Basin":"Cuencas del Sureste"}},{"type":"Feature","geometry":{"type":"Point","coordinates":[-71.267,5.355]},"properties":{"Unit Name":"Agave Oil Field (Casanare, Colombia)","Fuel type":"oil","Country/Area":"Colombia","Production Type":"conventional","Status":"operating","Operator":"Lewis Energy Colombia","Onshore/Offshore":"onshore"}},{"type":"Feature","geometry":{"type":"Point","coordinates":[6.975,4.937]},"properties":{"Unit Name":"Agbada Oil and Gas Field (Nigeria)","Fuel type":"oil and gas","Country/Area":"Nigeria","Production Type":"conventional","Status":"operating","Discovery year":"1960","Operator":"TNOG Oil and Gas","Onshore/Offshore":"onshore"}},{"type":"Feature","geometry":{"type":"Point","coordinates":[6.386,3.928]},"properties":{"Unit Name":"Agbara Oil and Gas Field (Nigeria)","Fuel type":"oil and gas","Country/Area":"Nigeria","Production Type":"conventional","Status":"operating","Discovery year":"1981","Operator":"NNPC E&P","Onshore/Offshore":"offshore"}},{"type":"Feature","geometry":{"type":"Point","coordinates":[49.7596,30.8312]},"properties":{"Unit Name":"Aghajari Oil Field (Iran)","Fuel type":"oil","Country/Area":"Iran","Production Type":"conventional","Status":"operating","Discovery year":"1936","Production start year":"1939","Operator":"Aghajari Oil and Gas Production","Onshore/Offshore":"onshore"}},{"type":"Feature","geometry":{"type":"Point","coordinates":[52.7953,28.5949]},"properties":{"Unit Name":"Aghar Gas Field (Iran)","Fuel type":"gas","Country/Area":"Iran","Production Type":"conventional","Status":"operating","Discovery year":"1974","Production start year":"1999","Operator":"South Zagros Oil and Gas Production","Onshore/Offshore":"onshore"}},{"type":"Feature","geometry":{"type":"Point","coordinates":[10.9542,-6.0646]},"properties":{"Unit Name":"Agogo Oil Field (Angola)","Fuel type":"oil","Country/Area":"Angola","Production Type":"conventional","Status":"operating","Discovery year":"2019","Production start year":"2020","Operator":"Azule Energy Holdings","Onshore/Offshore":"offshore"}},{"type":"Feature","geometry":{"type":"Point","coordinates":[-68.953,-38.817]},"properties":{"Unit Name":"Aguada Baguales Oil and Gas Field (Neuquén, Argentina)","Fuel type":"oil and gas","Country/Area":"Argentina","Production Type":"conventional","Status":"operating","Discovery year":"1963","Operator":"Oilstone Energia","Onshore/Offshore":"onshore","Basin":"Neuquina"}},{"type":"Feature","geometry":{"type":"Point","coordinates":[-68.465,-38.076]},"properties":{"Unit Name":"Aguada Cánepa Oil and Gas Field (Neuquén, Argentina)","Fuel type":"oil and gas","Country/Area":"Argentina","Status":"operating","Production start year":"2013","Operator":"Pan American Energy","Onshore/Offshore":"onshore","Basin":"Neuquina"}},{"type":"Feature","geometry":{"type":"Point","coordinates":[-69.567,-38.264]},"properties":{"Unit Name":"Aguada de Castro Oil and Gas Field (Neuquén, Argentina)","Fuel type":"oil and gas","Country/Area":"Argentina","Production Type":"unconventional","Status":"operating","Production start year":"2011","Operator":"Pan American Energy","Onshore/Offshore":"onshore","Basin":"Neuquina"}},{"type":"Feature","geometry":{"type":"Point","coordinates":[-69.153,-38.22]},"properties":{"Unit Name":"Aguada de la Arena Oil and Gas Field (Neuquén, Argentina)","Fuel type":"oil and gas","Country/Area":"Argentina","Production Type":"unconventional","Status":"operating","Operator":"YPF","Onshore/Offshore":"onshore","Basin":"Neuquina"}},{"type":"Feature","geometry":{"type":"Point","coordinates":[-68.977,-37.495]},"properties":{"Unit Name":"Aguada del Chivato Oil and Gas Field (Neuquén, Argentina)","Fuel type":"oil and gas","Country/Area":"Argentina","Status":"operating","Operator":"Patagonia Energy","Onshore/Offshore":"onshore","Basin":"Neuquina"}},{"type":"Feature","geometry":{"type":"Point","coordinates":[-67.779,-38.462]},"properties":{"Unit Name":"Aguada de los Indios Sur Oil and Gas Field (Rio Negro, Argentina)","Fuel type":"oil and gas","Country/Area":"Argentina","Status":"operating","Operator":"Tecpetrol","Onshore/Offshore":"onshore","Basin":"Neuquina"}},{"type":"Feature","geometry":{"type":"Point","coordinates":[-68.723,-38.089]},"properties":{"Unit Name":"Aguada Federal Oil and Gas Field (Neuquén, Argentina)","Fuel type":"oil and gas","Country/Area":"Argentina","Production Type":"unconventional","Status":"operating","Production start year":"2012","Operator":"Vista Energy Argentina Sau","Onshore/Offshore":"onshore","Basin":"Neuquina"}},{"type":"Feature","geometry":{"type":"Point","coordinates":[-69.369,-37.728]},"properties":{"Unit Name":"Aguada los Loros Oil and Gas Field (Neuquén, Argentina)","Fuel type":"oil and gas","Country/Area":"Argentina","Status":"operating","Production start year":"2013","Operator":"Pluspetrol Cuenca Neuquina","Onshore/Offshore":"onshore","Basin":"Neuquina"}},{"type":"Feature","geometry":{"type":"Point","coordinates":[-69.166,-38.389]},"properties":{"Unit Name":"Aguada Pichana Este Mulichinco Oil and Gas Field (Neuquén, Argentina)","Fuel type":"oil and gas","Country/Area":"Argentina","Status":"operating","Production start year":"2017","Operator":"Total Austral","Onshore/Offshore":"onshore","Basin":"Neuquina"}},{"type":"Feature","geometry":{"type":"Point","coordinates":[-69.213,-38.345]},"properties":{"Unit Name":"Aguada Pichana Este Vaca Muerta Oil and Gas Field (Neuquén, Argentina)","Fuel type":"oil and gas","Country/Area":"Argentina","Production Type":"unconventional","Status":"operating","Production start year":"2017","Operator":"Total Austral","Onshore/Offshore":"onshore","Basin":"Neuquina"}},{"type":"Feature","geometry":{"type":"Point","coordinates":[-69.408,-38.38]},"properties":{"Unit Name":"Aguada Pichana Oeste Oil and Gas Field (Neuquén, Argentina)","Fuel type":"oil and gas","Country/Area":"Argentina","Production Type":"unconventional","Status":"operating","Production start year":"2017","Operator":"Pan American Energy","Onshore/Offshore":"onshore","Basin":"Neuquina"}},{"type":"Feature","geometry":{"type":"Point","coordinates":[-69.003,-37.955]},"properties":{"Unit Name":"Aguada San Roque Oil and Gas Field (Neuquén, Argentina)","Fuel type":"oil and gas","Country/Area":"Argentina","Status":"operating","Operator":"Total Austral","Onshore/Offshore":"onshore","Basin":"Neuquina"}},{"type":"Feature","geometry":{"type":"Point","coordinates":[-68.819,-38.752]},"properties":{"Unit Name":"Aguada Toledo Oil and Gas Field (Neuquén, Argentina)","Fuel type":"oil and gas","Country/Area":"Argentina","Status":"operating","Operator":"YPF","Onshore/Offshore":"onshore","Basin":"Neuquina"}},{"type":"Feature","geometry":{"type":"Point","coordinates":[-97.6546,20.5375]},"properties":{"Unit Name":"Agua Fría Oil and Gas Field (Puebla; Veracruz, Mexico)","Fuel type":"oil and gas","Country/Area":"Mexico","Status":"operating","Discovery year":"1969","Operator":"Petróleos Mexicanos","Onshore/Offshore":"onshore","Basin":"Tampico-Misantla"}},{"type":"Feature","geometry":{"type":"Point","coordinates":[-38.344,-12.371]},"properties":{"Unit Name":"Água Grande Oil and Gas Field (Bahia, Brazil)","Fuel type":"oil and gas","Country/Area":"Brazil","Production Type":"conventional","Status":"operating","Discovery year":"1951","Production start year":"1951","Operator":"3R Bahia","Onshore/Offshore":"onshore","Basin":"Reconcavo"}},{"type":"Feature","geometry":{"type":"Point","coordinates":[-97.6814,20.8634]},"properties":{"Unit Name":"Agua Nacida Oil and Gas Field (Veracruz, Mexico)","Fuel type":"oil and gas","Country/Area":"Mexico","Status":"operating","Discovery year":"1948","Operator":"Petróleos Mexicanos","Onshore/Offshore":"onshore","Basin":"Tampico-Misantla"}},{"type":"Feature","geometry":{"type":"Point","coordinates":[-76.6622,-0.1533]},"properties":{"Unit Name":"Aguarico Oil and Gas Field (Ecuador)","Fuel type":"oil and gas","Country/Area":"Ecuador","Production Type":"conventional","Status":"operating","Discovery year":"1969","Operator":"EP Petroecuador","Onshore/Offshore":"onshore"}},{"type":"Feature","geometry":{"type":"Point","coordinates":[-63.8413,9.3177]},"properties":{"Unit Name":"Aguasay Oil Field (Venezuela)","Fuel type":"oil","Country/Area":"Venezuela","Status":"operating","Discovery year":"1955","Onshore/Offshore":"onshore"}},{"type":"Feature","geometry":{"type":"Point","coordinates":[-73.786,6.816]},"properties":{"Unit Name":"Aguas Blancas (Parex) Oil and Gas Field (Santander, Colombia)","Fuel type":"oil and gas","Country/Area":"Colombia","Production Type":"conventional","Status":"operating","Discovery year":"1963","Operator":"Parex Resources Colombia Ltd. Sucursal","Onshore/Offshore":"onshore"}},{"type":"Feature","geometry":{"type":"Point","coordinates":[-75.36,8.658]},"properties":{"Unit Name":"Aguas Vivas Gas Field (Cordoba, Colombia)","Fuel type":"gas","Country/Area":"Colombia","Production Type":"conventional","Status":"operating","Operator":"Canacol Energy Colombia","Onshore/Offshore":"onshore"}},{"type":"Feature","geometry":{"type":"Point","coordinates":[-96.4426,30.6546]},"properties":{"Unit Name":"Aguila Vado (Eagleford) - Wildfire Energy Operating Oil and Gas Asset (Texas, United States)","Fuel type":"oil and gas","Country/Area":"United States","Production Type":"unconventional","Status":"operating","Operator":"Wildfire Energy Operating","Onshore/Offshore":"onshore"}},{"type":"Feature","geometry":{"type":"Point","coordinates":[-36.889,-10.686]},"properties":{"Unit Name":"Aguilhada Oil and Gas Field (Sergipe, Brazil)","Fuel type":"oil and gas","Country/Area":"Brazil","Production Type":"conventional","Status":"operating","Discovery year":"1966","Production start year":"1969","Operator":"Carmo Energy","Onshore/Offshore":"onshore","Basin":"Sergipe"}},{"type":"Feature","geometry":{"type":"Point","coordinates":[-36.262,-4.899]},"properties":{"Unit Name":"Agulha Oil and Gas Field (Rio Grande do Norte, Brazil)","Fuel type":"oil and gas","Country/Area":"Brazil","Production Type":"conventional","Status":"operating","Discovery year":"1975","Production start year":"1979","Operator":"Petróleo Brasileiro","Onshore/Offshore":"offshore","Basin":"Potiguar"}},{"type":"Feature","geometry":{"type":"Point","coordinates":[-36.3012,-10.967]},"properties":{"Unit Name":"Agulhinha Oeste Oil and Gas Field (Sergipe, Brazil)","Fuel type":"oil and gas","Country/Area":"Brazil","Production Type":"conventional","Status":"discovered","Discovery year":"2010","Operator":"Petróleo Brasileiro","Onshore/Offshore":"offshore"}},{"type":"Feature","geometry":{"type":"Point","coordinates":[-36.3012,-10.967]},"properties":{"Unit Name":"Agulhinha Oil and Gas Field (Sergipe, Brazil)","Fuel type":"oil and gas","Country/Area":"Brazil","Production Type":"conventional","Status":"discovered","Discovery year":"2010","Operator":"Petróleo Brasileiro","Onshore/Offshore":"offshore","Basin":"Sergipe"}},{"type":"Feature","geometry":{"type":"Point","coordinates":[6.607,5.604]},"properties":{"Unit Name":"Agwe Oil and Gas Field (Nigeria)","Fuel type":"oil and gas","Country/Area":"Nigeria","Production Type":"conventional","Status":"operating","Discovery year":"1971","Operator":"Nigerian Agip Oil Company","Onshore/Offshore":"onshore"}},{"type":"Feature","geometry":{"type":"Point","coordinates":[45.714,32.424]},"properties":{"Unit Name":"Ahdab Oil and Gas Field (Iraq)","Fuel type":"oil and gas","Country/Area":"Iraq","Production Type":"conventional","Status":"operating","Discovery year":"1979","Production start year":"2011","Operator":"China National Petroleum","Onshore/Offshore":"onshore"}},{"type":"Feature","geometry":{"type":"Point","coordinates":[40.8437,34.54]},"properties":{"Unit Name":"Ahmer Oil Field (Syria)","Fuel type":"oil","Country/Area":"Syria","Production Type":"conventional","Status":"operating","Onshore/Offshore":"onshore"}},{"type":"Feature","geometry":{"type":"Point","coordinates":[-17.629,16.123]},"properties":{"Unit Name":"Ahmeyim Oil and Gas Field (Senegal)","Fuel type":"oil and gas","Country/Area":"Senegal","Production Type":"conventional","Status":"operating","Discovery year":"2016","Production start year":"2025","Operator":"BP","Onshore/Offshore":"offshore"}},{"type":"Feature","geometry":{"type":"Point","coordinates":[2,24]},"properties":{"Unit Name":"Ahnet Gas Field (Algeria)","Fuel type":"gas","Country/Area":"Algeria","Production Type":"unconventional","Status":"in-development","Discovery year":"1953","Operator":"Sonatrach","Onshore/Offshore":"onshore"}},{"type":"Feature","geometry":{"type":"Point","coordinates":[-150.8304,66.6693]},"properties":{"Unit Name":"Ahpun Oil and Gas Field (Alaska, United States)","Fuel type":"oil and gas","Country/Area":"United States","Production Type":"conventional","Status":"discovered","Discovery year":"2015","Operator":"Pantheon Resources","Onshore/Offshore":"onshore"}},{"type":"Feature","geometry":{"type":"Point","coordinates":[48.8121,31.3118]},"properties":{"Unit Name":"Ahvaz-Asmari Oil Field (Iran)","Fuel type":"oil","Country/Area":"Iran","Production Type":"conventional","Status":"operating","Discovery year":"1953","Production start year":"1954","Operator":"Karoon Oil and Gas Production","Onshore/Offshore":"onshore"}},{"type":"Feature","geometry":{"type":"Point","coordinates":[48.8121,31.3118]},"properties":{"Unit Name":"Ahvaz-Bangestan Oil Field (Iran)","Fuel type":"oil","Country/Area":"Iran","Production Type":"conventional","Status":"operating","Discovery year":"1953","Production start year":"1954","Operator":"Karoon Oil and Gas Production","Onshore/Offshore":"onshore"}},{"type":"Feature","geometry":{"type":"Point","coordinates":[49.4238,25.9492]},"properties":{"Unit Name":"Ain dar Oil Field (Saudi Arabia)","Fuel type":"oil","Country/Area":"Saudi Arabia","Production Type":"conventional","Status":"operating","Discovery year":"1948","Production start year":"1951","Operator":"Saudi Arabian Oil","Onshore/Offshore":"onshore"}},{"type":"Feature","geometry":{"type":"Point","coordinates":[8.012,27.693]},"properties":{"Unit Name":"Ain Tsila Oil and Gas Field (Algeria)","Fuel type":"oil and gas","Country/Area":"Algeria","Production Type":"conventional","Status":"operating","Discovery year":"2009","Production start year":"2024","Operator":"Sonatrach","Onshore/Offshore":"onshore","Basin":"Ilinzi"}},{"type":"Feature","geometry":{"type":"Point","coordinates":[10.8092112,48.220667]},"properties":{"Unit Name":"Aitingen Oil and Gas Field (Bayern, Germany)","Fuel type":"oil and gas","Country/Area":"Germany","Production Type":"conventional","Status":"operating","Discovery year":"1976","Operator":"ONEO"}},{"type":"Feature","geometry":{"type":"Point","coordinates":[-121.944,56.954]},"properties":{"Unit Name":"Aitken - Aitken Gas Oil and Gas Asset (British Columbia, Canada)","Fuel type":"oil and gas","Country/Area":"Canada","Production Type":"unconventional","Status":"operating","Operator":"Aitken Creek Gas Storage","Onshore/Offshore":"onshore"}},{"type":"Feature","geometry":{"type":"Point","coordinates":[-122.036,57.036]},"properties":{"Unit Name":"Aitken Creek North - Tourmaline Gas Asset (British Columbia, Canada)","Fuel type":"gas","Country/Area":"Canada","Production Type":"unconventional","Status":"operating","Operator":"Tourmaline Oil","Onshore/Offshore":"onshore"}},{"type":"Feature","geometry":{"type":"Point","coordinates":[-121.944,56.954]},"properties":{"Unit Name":"Aitken Creek Oil and Gas Field (British Columbia, Canada)","Fuel type":"oil and gas","Country/Area":"Canada","Production Type":"unconventional","Status":"operating","Discovery year":"1959","Production start year":"1959","Onshore/Offshore":"onshore"}},{"type":"Feature","geometry":{"type":"Point","coordinates":[43.744,35.019]},"properties":{"Unit Name":"Ajeel Oil and Gas Field (Iraq)","Fuel type":"oil and gas","Country/Area":"Iraq","Production Type":"conventional","Status":"operating","Operator":"North Oil Company","Onshore/Offshore":"onshore"}},{"type":"Feature","geometry":{"type":"Point","coordinates":[-73.735,3.954]},"properties":{"Unit Name":"Akacias (Acacias) Oil and Gas Field (Meta, Colombia)","Fuel type":"oil and gas","Country/Area":"Colombia","Production Type":"conventional","Status":"operating","Discovery year":"2015","Operator":"Ecopetrol","Onshore/Offshore":"onshore"}},{"type":"Feature","geometry":{"type":"Point","coordinates":[-73.735,3.954]},"properties":{"Unit Name":"Akacias (Guamal) Oil Field (Meta, Colombia)","Fuel type":"oil","Country/Area":"Colombia","Production Type":"conventional","Status":"operating","Discovery year":"2015","Operator":"Ecopetrol","Onshore/Offshore":"onshore"}},{"type":"Feature","geometry":{"type":"Point","coordinates":[-92.0692,19.5065]},"properties":{"Unit Name":"Akal NW Oil and Gas Field (Mexico)","Fuel type":"oil and gas","Country/Area":"Mexico","Status":"operating","Onshore/Offshore":"offshore"}},{"type":"Feature","geometry":{"type":"Point","coordinates":[-92.0532,19.3991]},"properties":{"Unit Name":"Akal Oil and Gas Field (Federal Offshore, Mexico)","Fuel type":"oil and gas","Country/Area":"Mexico","Production Type":"conventional","Status":"operating","Discovery year":"1976","Production start year":"1979","Operator":"Petróleos Mexicanos","Onshore/Offshore":"offshore","Basin":"Cuencas del Sureste"}},{"type":"Feature","geometry":{"type":"Point","coordinates":[40.737,34.4025]},"properties":{"Unit Name":"Akash Oil Field (Syria)","Fuel type":"oil","Country/Area":"Syria","Production Type":"conventional","Status":"operating","Operator":"Syrian Petroleum","Onshore/Offshore":"onshore"}},{"type":"Feature","geometry":{"type":"Point","coordinates":[-72.731,4.347]},"properties":{"Unit Name":"Akira Oil Field (Casanare, Colombia)","Fuel type":"oil","Country/Area":"Colombia","Production Type":"conventional","Status":"operating","Operator":"Parex Resources","Onshore/Offshore":"onshore"}},{"type":"Feature","geometry":{"type":"Point","coordinates":[41.18,34.115]},"properties":{"Unit Name":"Akkas Gas Field (Iraq)","Fuel type":"gas","Country/Area":"Iraq","Production Type":"conventional","Status":"operating","Discovery year":"1992","Production start year":"2024","Operator":"Midland Oil","Onshore/Offshore":"onshore"}},{"type":"Feature","geometry":{"type":"Point","coordinates":[41.18,34.115]},"properties":{"Unit Name":"Akkas Redevelopment Gas Field (Iraq)","Fuel type":"gas","Country/Area":"Iraq","Production Type":"conventional","Status":"in-development","Discovery year":"1992","Operator":"Midland Oil","Onshore/Offshore":"onshore"}},{"type":"Feature","geometry":{"type":"Point","coordinates":[6.586114523540559,3.153126869970483]},"properties":{"Unit Name":"Akpo Oil and Gas Field (Nigeria)","Fuel type":"oil and gas","Country/Area":"Nigeria","Production Type":"conventional","Status":"operating","Discovery year":"2000","Production start year":"2009","Operator":"TotalEnergies Upstream Nigeria","Onshore/Offshore":"offshore"}},{"type":"Feature","geometry":{"type":"Point","coordinates":[65.324,46.572]},"properties":{"Unit Name":"Akshabulak Oil and Gas Field (Kazakhstan)","Fuel type":"oil and gas","Country/Area":"Kazakhstan","Production Type":"conventional","Status":"operating","Discovery year":"1988","Production start year":"1997","Operator":"Kazgermunai (KazGerMunay)","Onshore/Offshore":"onshore","Basin":"Turgay"}},{"type":"Feature","geometry":{"type":"Point","coordinates":[52.7515,46.2114]},"properties":{"Unit Name":"Aktoty Oil and Gas Field (Kazakhstan)","Fuel type":"oil and gas","Country/Area":"Kazakhstan","Production Type":"conventional","Operator":"North Caspian Operating Company","Onshore/Offshore":"offshore"}},{"type":"Feature","geometry":{"type":"Point","coordinates":[-93.3437,32.3076]},"properties":{"Unit Name":"Alabama Bend - Aethon Gas Asset (Louisiana, United States)","Fuel type":"gas","Country/Area":"United States","Status":"operating","Discovery year":"1950","Operator":"Aethon Energy","Onshore/Offshore":"onshore","Basin":"TX-LA-MS Salt"}},{"type":"Feature","geometry":{"type":"Point","coordinates":[-93.4194,32.3075]},"properties":{"Unit Name":"Alabama Bend - Bpx Operating Company Gas Asset (Louisiana, United States)","Fuel type":"gas","Country/Area":"United States","Status":"operating","Discovery year":"1950","Operator":"BPX Operating","Onshore/Offshore":"onshore"}},{"type":"Feature","geometry":{"type":"Point","coordinates":[-92.7906,19.455]},"properties":{"Unit Name":"Alak Oil and Gas Field (Federal Offshore, Mexico)","Fuel type":"oil and gas","Country/Area":"Mexico","Discovery year":"1999","Onshore/Offshore":"offshore","Basin":"Cuencas del Sureste"}},{"type":"Feature","geometry":{"type":"Point","coordinates":[-102.172,49.297]},"properties":{"Unit Name":"Alameda East Frobisher Oil Pool (Saskatchewan, Canada)","Fuel type":"oil","Country/Area":"Canada","Status":"operating","Discovery year":"1983","Onshore/Offshore":"onshore"}},{"type":"Feature","geometry":{"type":"Point","coordinates":[-102.229,49.23]},"properties":{"Unit Name":"Alameda Midale Oil Pool (Saskatchewan, Canada)","Fuel type":"oil","Country/Area":"Canada","Status":"operating","Discovery year":"1956","Onshore/Offshore":"onshore"}},{"type":"Feature","geometry":{"type":"Point","coordinates":[-81.2778,22.971]},"properties":{"Unit Name":"Alameda Oil Field (Matanzas, Cuba)","Fuel type":"oil","Country/Area":"Cuba","Production Type":"conventional","Status":"discovered","Discovery year":"2022","Operator":"Melbana Energy","Onshore/Offshore":"onshore"}},{"type":"Feature","geometry":{"type":"Point","coordinates":[-102.371,49.291]},"properties":{"Unit Name":"Alameda West Frobisher Oil Pool (Saskatchewan, Canada)","Fuel type":"oil","Country/Area":"Canada","Status":"operating","Discovery year":"1982","Onshore/Offshore":"onshore"}},{"type":"Feature","geometry":{"type":"Point","coordinates":[64.9982,38.8214]},"properties":{"Unit Name":"Alan Oil and Gas Field (Uzbekistan)","Fuel type":"oil and gas","Country/Area":"Uzbekistan","Production Type":"conventional","Status":"operating","Discovery year":"1977","Production start year":"1979","Operator":"Uzbekneftegaz","Onshore/Offshore":"onshore"}},{"type":"Feature","geometry":{"type":"Point","coordinates":[-39.746,-22.111]},"properties":{"Unit Name":"Albacora Leste Oil and Gas Field (Rio de Janeiro, Brazil)","Fuel type":"oil and gas","Country/Area":"Brazil","Production Type":"conventional","Status":"operating","Discovery year":"1986","Production start year":"1998","Operator":"Petro Rio Jaguar Petroleo SA.","Onshore/Offshore":"offshore","Basin":"Campos"}},{"type":"Feature","geometry":{"type":"Point","coordinates":[-39.961,-22.131]},"properties":{"Unit Name":"Albacora Oil and Gas Field (Rio de Janeiro, Brazil)","Fuel type":"oil and gas","Country/Area":"Brazil","Production Type":"unconventional","Status":"operating","Discovery year":"1984","Production start year":"1987","Operator":"Petróleo Brasileiro","Onshore/Offshore":"offshore","Basin":"Campos"}},{"type":"Feature","geometry":{"type":"Point","coordinates":[1.1085,58.0355]},"properties":{"Unit Name":"Alba Oil and Gas Field (United Kingdom)","Fuel type":"oil and gas","Country/Area":"United Kingdom","Production Type":"conventional","Status":"operating","Discovery year":"1984","Production start year":"1994","Operator":"Ithaca Energy","Onshore/Offshore":"offshore"}},{"type":"Feature","geometry":{"type":"Point","coordinates":[52.6091,25.126]},"properties":{"Unit Name":"Al Bunduq Oil and Gas Field (Qatar)","Fuel type":"oil and gas","Country/Area":"Qatar","Production Type":"conventional","Status":"operating","Discovery year":"1965","Production start year":"1975","Operator":"Bunduq","Onshore/Offshore":"offshore"}},{"type":"Feature","geometry":{"type":"Point","coordinates":[-0.5206,51.2082]},"properties":{"Unit Name":"Albury Oil and Gas Field (United Kingdom)","Fuel type":"oil and gas","Country/Area":"United Kingdom","Production Type":"conventional","Status":"operating","Discovery year":"1987","Production start year":"1994","Operator":"Star Energy Group","Onshore/Offshore":"onshore"}},{"type":"Feature","geometry":{"type":"Point","coordinates":[54.1723,24.2479]},"properties":{"Unit Name":"Al-Dabbiya Oil and Gas Field (United Arab Emirates)","Fuel type":"oil and gas","Country/Area":"United Arab Emirates","Production Type":"conventional","Status":"operating","Discovery year":"1983","Production start year":"2005","Operator":"Abu Dhabi Company for Onshore Oil Operations (ADNOC)","Onshore/Offshore":"onshore"}},{"type":"Feature","geometry":{"type":"Point","coordinates":[0.6994,58.0996]},"properties":{"Unit Name":"Alder Oil and Gas Field (United Kingdom)","Fuel type":"oil and gas","Country/Area":"United Kingdom","Production Type":"conventional","Status":"operating","Discovery year":"1975","Production start year":"2016","Operator":"Ithaca Energy","Onshore/Offshore":"offshore"}},{"type":"Feature","geometry":{"type":"Point","coordinates":[-111.464,50.268]},"properties":{"Unit Name":"Alderson Oil and Gas Field (Alberta, Canada)","Fuel type":"oil and gas","Country/Area":"Canada","Status":"operating","Discovery year":"1904","Onshore/Offshore":"onshore"}},{"type":"Feature","geometry":{"type":"Point","coordinates":[16.4748,51.5962]},"properties":{"Unit Name":"Aleksandrówka Gas Field (Poland)","Fuel type":"gas","Country/Area":"Poland","Production Type":"conventional","Status":"operating","Operator":"ORLEN","Onshore/Offshore":"onshore"}},{"type":"Feature","geometry":{"type":"Point","coordinates":[-103.5645,47.8925]},"properties":{"Unit Name":"Alexander - Grayson Mill Operating, Llc Oil and Gas Asset (North Dakota, United States)","Fuel type":"oil and gas","Country/Area":"United States","Production Type":"unconventional","Status":"operating","Operator":"Grayson Mill Operating","Onshore/Offshore":"onshore"}},{"type":"Feature","geometry":{"type":"Point","coordinates":[-113.986,53.828]},"properties":{"Unit Name":"Alexander Oil and Gas Field (Alberta, Canada)","Fuel type":"oil and gas","Country/Area":"Canada","Status":"operating","Discovery year":"1949","Onshore/Offshore":"onshore"}},{"type":"Feature","geometry":{"type":"Point","coordinates":[68.7987,59.8339]},"properties":{"Unit Name":"Alexander Zhagrin Oil Field (Khanty-Mansi Autonomous Okrug, Russia)","Fuel type":"oil","Country/Area":"Russia","Status":"operating","Discovery year":"2017","Production start year":"2019","Operator":"Gazpromneft-Khantos","Onshore/Offshore":"onshore"}},{"type":"Feature","geometry":{"type":"Point","coordinates":[9.744,52.1359]},"properties":{"Unit Name":"Alfeld-Elze/Hildesheimer-Wald Gas Field (Germany)","Fuel type":"gas","Country/Area":"Germany","Production Type":"conventional","Status":"operating","Discovery year":"1972","Production start year":"1972","Operator":"5P Energy GmbH","Onshore/Offshore":"onshore"}},{"type":"Feature","geometry":{"type":"Point","coordinates":[-102.5686,48.256]},"properties":{"Unit Name":"Alger - Grayson Mill Operating, Llc Oil and Gas Asset (North Dakota, United States)","Fuel type":"oil and gas","Country/Area":"United States","Production Type":"unconventional","Status":"operating","Operator":"Grayson Mill Operating","Onshore/Offshore":"onshore"}},{"type":"Feature","geometry":{"type":"Point","coordinates":[-102.6317,48.2719]},"properties":{"Unit Name":"Alger - Hess Bakken Investments Ii, Llc (Bakken) Oil and Gas Asset (North Dakota, United States)","Fuel type":"oil and gas","Country/Area":"United States","Production Type":"unconventional","Status":"operating","Operator":"Hess Bakken Investments Ii","Onshore/Offshore":"onshore"}},{"type":"Feature","geometry":{"type":"Point","coordinates":[-102.5733,48.3189]},"properties":{"Unit Name":"Alger - Oasis Petroleum North America Llc Oil and Gas Asset (North Dakota, United States)","Fuel type":"oil and gas","Country/Area":"United States","Production Type":"unconventional","Status":"operating","Operator":"Oasis Petroleum North America","Onshore/Offshore":"onshore"}},{"type":"Feature","geometry":{"type":"Point","coordinates":[45.566,31.73]},"properties":{"Unit Name":"Al Gharaf Oil and Gas Field (Iraq)","Fuel type":"oil and gas","Country/Area":"Iraq","Production Type":"conventional","Status":"operating","Discovery year":"1984","Production start year":"2013","Operator":"Petroliam Nasional","Onshore/Offshore":"onshore"}},{"type":"Feature","geometry":{"type":"Point","coordinates":[20.25,46.3333]},"properties":{"Unit Name":"Algyo Oil and Gas Field (Hungary)","Fuel type":"oil and gas","Country/Area":"Hungary","Production Type":"conventional","Status":"operating","Discovery year":"1965","Production start year":"1965","Operator":"EMSZ Elso Magyar Szenhidrogen Koncesszios","Onshore/Offshore":"onshore","Basin":"Szeged"}},{"type":"Feature","geometry":{"type":"Point","coordinates":[58.014,48.373]},"properties":{"Unit Name":"Alibekmola Oil and Gas Field (Kazakhstan)","Fuel type":"oil and gas","Country/Area":"Kazakhstan","Production Type":"conventional","Status":"operating","Discovery year":"1987","Production start year":"1999","Operator":"Kazakhoil Aktobe","Onshore/Offshore":"onshore"}},{"type":"Feature","geometry":{"type":"Point","coordinates":[-101.837,49.44]},"properties":{"Unit Name":"Alida East Frob-Alida Oil Pool (Saskatchewan, Canada)","Fuel type":"oil","Country/Area":"Canada","Status":"operating","Discovery year":"1954","Onshore/Offshore":"onshore"}},{"type":"Feature","geometry":{"type":"Point","coordinates":[-101.968,49.465]},"properties":{"Unit Name":"Alida North Alida Oil Pool (Saskatchewan, Canada)","Fuel type":"oil","Country/Area":"Canada","Status":"operating","Discovery year":"1962","Onshore/Offshore":"onshore"}},{"type":"Feature","geometry":{"type":"Point","coordinates":[-101.918,49.452]},"properties":{"Unit Name":"Alida West Frob-Alida Oil Pool (Saskatchewan, Canada)","Fuel type":"oil","Country/Area":"Canada","Status":"operating","Discovery year":"1955","Onshore/Offshore":"onshore"}},{"type":"Feature","geometry":{"type":"Point","coordinates":[54.6667,25.3333]},"properties":{"Unit Name":"Al Jalila Oil and Gas Field (United Arab Emirates)","Fuel type":"oil and gas","Country/Area":"United Arab Emirates","Production Type":"conventional","Status":"operating","Discovery year":"2010","Production start year":"2011","Operator":"Dubai Petroleum Establishment","Onshore/Offshore":"offshore"}},{"type":"Feature","geometry":{"type":"Point","coordinates":[40.6943,36.0439]},"properties":{"Unit Name":"Al Jubaissah Oil Field (Syria)","Fuel type":"oil","Country/Area":"Syria","Production Type":"conventional","Status":"operating","Operator":"Syrian Democratic Forces","Onshore/Offshore":"onshore"}},{"type":"Feature","geometry":{"type":"Point","coordinates":[12.022,33.5124]},"properties":{"Unit Name":"Al Jurf Oil Field (Libya)","Fuel type":"oil","Country/Area":"Libya","Production Type":"conventional","Status":"operating","Discovery year":"1976","Production start year":"2003","Operator":"Mabruk Oil Operations","Onshore/Offshore":"offshore"}},{"type":"Feature","geometry":{"type":"Point","coordinates":[-102.7236,48.1394]},"properties":{"Unit Name":"Alkali Creek - Continental Resources, Inc. Oil and Gas Asset (North Dakota, United States)","Fuel type":"oil and gas","Country/Area":"United States","Production Type":"unconventional","Status":"operating","Operator":"Continental Resources","Onshore/Offshore":"onshore"}},{"type":"Feature","geometry":{"type":"Point","coordinates":[-102.7584,48.1795]},"properties":{"Unit Name":"Alkali Creek - Hess Bakken Investments Ii, Llc Oil and Gas Asset (North Dakota, United States)","Fuel type":"oil and gas","Country/Area":"United States","Production Type":"unconventional","Status":"operating","Operator":"Hess Bakken Investments Ii","Onshore/Offshore":"onshore"}},{"type":"Feature","geometry":{"type":"Point","coordinates":[-102.7209,48.1573]},"properties":{"Unit Name":"Alkali Creek - Oasis Petroleum North America Llc Oil and Gas Asset (North Dakota, United States)","Fuel type":"oil and gas","Country/Area":"United States","Production Type":"unconventional","Status":"operating","Operator":"Oasis Petroleum North America","Onshore/Offshore":"onshore"}},{"type":"Feature","geometry":{"type":"Point","coordinates":[-102.831,48.1949]},"properties":{"Unit Name":"Alkali Creek - Xto Energy Inc Oil and Gas Asset (North Dakota, United States)","Fuel type":"oil and gas","Country/Area":"United States","Production Type":"unconventional","Status":"operating","Operator":"XTO Energy","Onshore/Offshore":"onshore"}},{"type":"Feature","geometry":{"type":"Point","coordinates":[28.1791,29.7724]},"properties":{"Unit Name":"Al Karam Oil and Gas Field (Egypt)","Fuel type":"oil and gas","Country/Area":"Egypt","Production Type":"conventional","Status":"operating","Operator":"Badreddin Petroleum Co. (BAPETCO)","Onshore/Offshore":"onshore"}},{"type":"Feature","geometry":{"type":"Point","coordinates":[52.4847,25.0811]},"properties":{"Unit Name":"Al-Karkara/A-Structure Oil and Gas Field (Qatar)","Fuel type":"oil and gas","Country/Area":"Qatar","Production Type":"conventional","Status":"operating","Discovery year":"1971","Operator":"Qatar Petroleum Development","Onshore/Offshore":"offshore"}},{"type":"Feature","geometry":{"type":"Point","coordinates":[41.9288,36.9444]},"properties":{"Unit Name":"Al Khairat Oil and Gas Field (Syria)","Fuel type":"oil and gas","Country/Area":"Syria","Production Type":"conventional","Status":"discovered","Discovery year":"2011","Operator":"Dijla Petroleum","Onshore/Offshore":"onshore"}},{"type":"Feature","geometry":{"type":"Point","coordinates":[51.8521,26.5712]},"properties":{"Unit Name":"Al-Khaleej Gas Project 1 Gas Phase (Qatar)","Fuel type":"gas","Country/Area":"Qatar","Production Type":"conventional","Status":"operating","Production start year":"2005","Operator":"Exxon Mobil","Onshore/Offshore":"offshore"}},{"type":"Feature","geometry":{"type":"Point","coordinates":[51.8521,26.5712]},"properties":{"Unit Name":"Al-Khaleej Gas Project 2 Gas Phase (Qatar)","Fuel type":"gas","Country/Area":"Qatar","Production Type":"conventional","Status":"operating","Production start year":"2010","Operator":"Exxon Mobil","Onshore/Offshore":"offshore"}},{"type":"Feature","geometry":{"type":"Point","coordinates":[52.6997,25.923]},"properties":{"Unit Name":"Al Khalij Oil and Gas Field (Qatar)","Fuel type":"oil and gas","Country/Area":"Qatar","Production Type":"conventional","Status":"operating","Discovery year":"1991","Production start year":"1997","Operator":"TotalEnergies E&P-Qatar","Onshore/Offshore":"offshore"}},{"type":"Feature","geometry":{"type":"Point","coordinates":[-90.2615,27.6915]},"properties":{"Unit Name":"Allegheny (GC254) - ENI Oil and Gas Asset (Federal offshore, United States)","Fuel type":"oil and gas","Country/Area":"United States","Status":"operating","Discovery year":"1985","Operator":"ENI Petroleum","Onshore/Offshore":"offshore"}},{"type":"Feature","geometry":{"type":"Point","coordinates":[-100.8289,36.2097]},"properties":{"Unit Name":"Allen-Parker (Marmaton) - Mewbourne Oil Oil and Gas Asset (Texas, United States)","Fuel type":"oil and gas","Country/Area":"United States","Production Type":"unconventional","Status":"operating","Operator":"Mewbourne Oil","Onshore/Offshore":"onshore"}},{"type":"Feature","geometry":{"type":"Point","coordinates":[-72.9867,4.3386]},"properties":{"Unit Name":"Alligator Oil and Gas Field (Meta, Colombia)","Fuel type":"oil and gas","Country/Area":"Colombia","Production Type":"conventional","Status":"operating","Operator":"Frontera Energy Colombia Corp Sucursal Colombia","Onshore/Offshore":"onshore"}},{"type":"Feature","geometry":{"type":"Point","coordinates":[-4.218,60.3802]},"properties":{"Unit Name":"Alligin Oil and Gas Field (United Kingdom)","Fuel type":"oil and gas","Country/Area":"United Kingdom","Production Type":"conventional","Status":"operating","Discovery year":"1995","Production start year":"2019","Operator":"Bp Exploration","Onshore/Offshore":"offshore"}},{"type":"Feature","geometry":{"type":"Point","coordinates":[-72.658,3.9034]},"properties":{"Unit Name":"Almagro Oil Field (Meta, Colombia)","Fuel type":"oil","Country/Area":"Colombia","Production Type":"conventional","Status":"operating","Discovery year":"1988","Operator":"Iberoamericana De Hidrocarburos Cq Exploración Y Producción","Onshore/Offshore":"onshore"}},{"type":"Feature","geometry":{"type":"Point","coordinates":[5.2312,55.4948]},"properties":{"Unit Name":"Alma Oil and Gas Field (Denmark)","Fuel type":"oil and gas","Country/Area":"Denmark","Production Type":"conventional","Discovery year":"1990","Production start year":"2009","Operator":"TotalEnergies","Onshore/Offshore":"offshore"}},{"type":"Feature","geometry":{"type":"Point","coordinates":[2.7827,56.183]},"properties":{"Unit Name":"Alma Oil and Gas Field (United Kingdom)","Fuel type":"oil and gas","Country/Area":"United Kingdom","Production Type":"conventional","Status":"mothballed","Discovery year":"1971","Production start year":"2015","Operator":"Enquest","Onshore/Offshore":"offshore","Basin":"Tail End Graben"}},{"type":"Feature","geometry":{"type":"Point","coordinates":[40.6014,35.0746]},"properties":{"Unit Name":"al-Omar Oil Field (Syria)","Fuel type":"oil","Country/Area":"Syria","Production Type":"conventional","Status":"operating","Discovery year":"1987","Operator":"Syrian Petroleum","Onshore/Offshore":"onshore"}},{"type":"Feature","geometry":{"type":"Point","coordinates":[-103.864,31.1813]},"properties":{"Unit Name":"Alpine High (Cons) - Apache Corporation Oil and Gas Asset (Texas, United States)","Fuel type":"oil and gas","Country/Area":"United States","Production Type":"unconventional","Status":"operating","Discovery year":"1994","Operator":"Apache","Onshore/Offshore":"onshore","Basin":"Permian"}},{"type":"Feature","geometry":{"type":"Point","coordinates":[9.79,28.529]},"properties":{"Unit Name":"Alrar Gas Field (Algeria)","Fuel type":"gas","Country/Area":"Algeria","Production Type":"conventional","Status":"operating","Discovery year":"1961","Production start year":"1987","Operator":"Sonatrach","Onshore/Offshore":"onshore"}},{"type":"Feature","geometry":{"type":"Point","coordinates":[51.5725,26.6591]},"properties":{"Unit Name":"Al Rayyan Oil and Gas Field (Qatar)","Fuel type":"oil and gas","Country/Area":"Qatar","Production Type":"conventional","Status":"operating","Discovery year":"1976","Production start year":"1996","Operator":"QatarEnergy","Onshore/Offshore":"offshore"}},{"type":"Feature","geometry":{"type":"Point","coordinates":[51.9219,26.5142]},"properties":{"Unit Name":"Al Shaheen Oil and Gas Field (Qatar)","Fuel type":"oil and gas","Country/Area":"Qatar","Production Type":"conventional","Status":"operating","Discovery year":"1970","Production start year":"1994","Operator":"North Oil Company","Onshore/Offshore":"offshore"}},{"type":"Feature","geometry":{"type":"Point","coordinates":[40.8305,34.9281]},"properties":{"Unit Name":"al-Tanak Oil Field (Syria)","Fuel type":"oil","Country/Area":"Syria","Status":"operating","Discovery year":"1987","Operator":"Syrian Democratic Forces","Onshore/Offshore":"onshore"}},{"type":"Feature","geometry":{"type":"Point","coordinates":[-122.01,56.267]},"properties":{"Unit Name":"Altares - Cnrl Gas Asset (British Columbia, Canada)","Fuel type":"gas","Country/Area":"Canada","Production Type":"unconventional","Status":"operating","Operator":"Canadian Natural Resources","Onshore/Offshore":"onshore"}},{"type":"Feature","geometry":{"type":"Point","coordinates":[-122.01,56.267]},"properties":{"Unit Name":"Altares Gas Field (British Columbia, Canada)","Fuel type":"gas","Country/Area":"Canada","Production Type":"unconventional","Status":"operating","Discovery year":"1959","Production start year":"1997","Onshore/Offshore":"onshore"}},{"type":"Feature","geometry":{"type":"Point","coordinates":[-122.01,56.267]},"properties":{"Unit Name":"Altares - Pacific Canbriam Oil and Gas Asset (British Columbia, Canada)","Fuel type":"oil and gas","Country/Area":"Canada","Production Type":"unconventional","Status":"operating","Operator":"Pacific Canbriam Energy","Onshore/Offshore":"onshore"}},{"type":"Feature","geometry":{"type":"Point","coordinates":[-36.734,-5.316]},"properties":{"Unit Name":"Alto do Rodrigues Oil and Gas Field (Rio Grande do Norte, Brazil)","Fuel type":"oil and gas","Country/Area":"Brazil","Production Type":"conventional","Status":"operating","Discovery year":"1981","Production start year":"1981","Operator":"3R Potiguar","Onshore/Offshore":"onshore","Basin":"Potiguar"}},{"type":"Feature","geometry":{"type":"Point","coordinates":[-72.43,9.7939]},"properties":{"Unit Name":"Alturitas Oil and Gas Field (Venezuela)","Fuel type":"oil and gas","Country/Area":"Venezuela","Status":"operating","Discovery year":"1950","Onshore/Offshore":"onshore"}},{"type":"Feature","geometry":{"type":"Point","coordinates":[97.61,4.938]},"properties":{"Unit Name":"Alur Siwah Oil and Gas Field (Indonesia)","Fuel type":"oil and gas","Country/Area":"Indonesia","Production Type":"conventional","Status":"operating","Discovery year":"1972","Operator":"Medco Energy","Onshore/Offshore":"onshore"}},{"type":"Feature","geometry":{"type":"Point","coordinates":[-81.121,-4.505]},"properties":{"Unit Name":"Alvarez - Oveja (IV) Oil and Gas Field (Piura, Peru)","Fuel type":"oil and gas","Country/Area":"Peru","Production Type":"conventional","Status":"operating","Operator":"UNNA Energia","Onshore/Offshore":"onshore","Basin":"Talara"}},{"type":"Feature","geometry":{"type":"Point","coordinates":[7.8482,66.021]},"properties":{"Unit Name":"Alve Nord Oil and Gas Field (Norway)","Fuel type":"oil and gas","Country/Area":"Norway","Production Type":"conventional","Status":"in-development","Discovery year":"2011","Operator":"Aker BP","Onshore/Offshore":"offshore"}},{"type":"Feature","geometry":{"type":"Point","coordinates":[7.8176,65.9685]},"properties":{"Unit Name":"Alve Oil and Gas Field (Norway)","Fuel type":"oil and gas","Country/Area":"Norway","Production Type":"conventional","Status":"operating","Discovery year":"1990","Production start year":"2009","Operator":"Equinor Energy","Onshore/Offshore":"offshore"}},{"type":"Feature","geometry":{"type":"Point","coordinates":[1.9898,59.5785]},"properties":{"Unit Name":"Alvheim Oil and Gas Field (Norway)","Fuel type":"oil and gas","Country/Area":"Norway","Production Type":"conventional","Status":"operating","Discovery year":"1998","Production start year":"2008","Operator":"Aker BP","Onshore/Offshore":"offshore"}},{"type":"Feature","geometry":{"type":"Point","coordinates":[1.742,60.8093]},"properties":{"Unit Name":"Alwyn North Oil and Gas Field (United Kingdom)","Fuel type":"oil and gas","Country/Area":"United Kingdom","Production Type":"conventional","Status":"operating","Discovery year":"1975","Production start year":"1987","Operator":"Totalenergies Upstream Uk","Onshore/Offshore":"offshore"}},{"type":"Feature","geometry":{"type":"Point","coordinates":[33.5694,28.0728]},"properties":{"Unit Name":"Amal C Oil and Gas Field (Egypt)","Fuel type":"oil and gas","Country/Area":"Egypt","Production Type":"conventional","Operator":"PICO Cheiron Group","Onshore/Offshore":"offshore"}},{"type":"Feature","geometry":{"type":"Point","coordinates":[33.5167,28.0667]},"properties":{"Unit Name":"Amal Oil Field (Egypt)","Fuel type":"oil","Country/Area":"Egypt","Production Type":"conventional","Status":"operating","Discovery year":"1959","Onshore/Offshore":"offshore"}},{"type":"Feature","geometry":{"type":"Point","coordinates":[21.1025,29.4842]},"properties":{"Unit Name":"Amal Oil Field (Libya)","Fuel type":"oil","Country/Area":"Libya","Production Type":"conventional","Status":"operating","Discovery year":"1959","Operator":"Harouge Oil Operations","Onshore/Offshore":"onshore","Basin":"Sirte"}},{"type":"Feature","geometry":{"type":"Point","coordinates":[33.5694,28.0728]},"properties":{"Unit Name":"Amal Redevelop (A and B) Oil and Gas Field (Egypt)","Fuel type":"oil and gas","Country/Area":"Egypt","Production Type":"conventional","Status":"operating","Operator":"PICO Cheiron Group","Onshore/Offshore":"offshore"}},{"type":"Feature","geometry":{"type":"Point","coordinates":[56.0697,20.3293]},"properties":{"Unit Name":"Amal West Oil Field (Oman)","Fuel type":"oil","Country/Area":"Oman","Production Type":"conventional","Status":"operating","Discovery year":"1972","Production start year":"1984","Operator":"Petroleum Development Oman","Onshore/Offshore":"onshore"}},{"type":"Feature","geometry":{"type":"Point","coordinates":[71.0854,44.337]},"properties":{"Unit Name":"Amangeldy Gas Field (Kazakhstan)","Fuel type":"gas","Country/Area":"Kazakhstan","Production Type":"conventional","Status":"operating","Discovery year":"1975","Production start year":"2003","Operator":"QazaqGas","Onshore/Offshore":"onshore","Basin":"Chu-Sarysu"}},{"type":"Feature","geometry":{"type":"Point","coordinates":[47.0614,31.7468]},"properties":{"Unit Name":"Amara Oil and Gas Field (Iraq)","Fuel type":"oil and gas","Country/Area":"Iraq","Production Type":"conventional","Status":"operating","Discovery year":"1973","Operator":"Missan Oil","Onshore/Offshore":"onshore"}},{"type":"Feature","geometry":{"type":"Point","coordinates":[-97.9804,20.8626]},"properties":{"Unit Name":"Amatitlán Gas Field (Puebla; Veracruz, Mexico)","Fuel type":"gas","Country/Area":"Mexico","Status":"operating","Discovery year":"1962","Operator":"Petróleos Mexicanos","Onshore/Offshore":"onshore","Basin":"Tampico-Misantla"}},{"type":"Feature","geometry":{"type":"Point","coordinates":[-88.958,28.859]},"properties":{"Unit Name":"Amberjack (MC109) - Talos Petroleum Oil and Gas Asset (Federal offshore, United States)","Fuel type":"oil and gas","Country/Area":"United States","Status":"operating","Discovery year":"1983","Operator":"Talos Petroleum","Onshore/Offshore":"offshore"}},{"type":"Feature","geometry":{"type":"Point","coordinates":[-119.177,58.98]},"properties":{"Unit Name":"Amber Oil and Gas Field (Alberta, Canada)","Fuel type":"oil and gas","Country/Area":"Canada","Status":"operating","Discovery year":"1967","Onshore/Offshore":"onshore"}},{"type":"Feature","geometry":{"type":"Point","coordinates":[5.914,53.47]},"properties":{"Unit Name":"Ameland-Oost Oil and Gas Field (Netherlands)","Fuel type":"oil and gas","Country/Area":"Netherlands","Production Type":"conventional","Status":"operating","Discovery year":"1964","Production start year":"1986","Operator":"Nederlandse Aardolie Maatschappij","Onshore/Offshore":"onshore"}},{"type":"Feature","geometry":{"type":"Point","coordinates":[5.933,53.501]},"properties":{"Unit Name":"Ameland-Westgat Oil and Gas Field (Netherlands)","Fuel type":"oil and gas","Country/Area":"Netherlands","Production Type":"conventional","Status":"operating","Discovery year":"1975","Production start year":"1993","Operator":"Nederlandse Aardolie Maatschappij","Onshore/Offshore":"onshore"}},{"type":"Feature","geometry":{"type":"Point","coordinates":[12.67,44.409]},"properties":{"Unit Name":"Amelia Gas Field (Italy)","Fuel type":"gas","Country/Area":"Italy","Production Type":"conventional","Status":"operating","Discovery year":"1968","Operator":"Eni","Onshore/Offshore":"offshore"}},{"type":"Feature","geometry":{"type":"Point","coordinates":[0.7838,53.5945]},"properties":{"Unit Name":"Amethyst East Oil and Gas Field (United Kingdom)","Fuel type":"oil and gas","Country/Area":"United Kingdom","Production Type":"conventional","Status":"mothballed","Discovery year":"1972","Production start year":"1990","Operator":"Perenco UK","Onshore/Offshore":"offshore","Basin":"Anglo-Dutch and North German"}},{"type":"Feature","geometry":{"type":"Point","coordinates":[-60.459,9.965]},"properties":{"Unit Name":"Amherstia Gas Field (Trinidad and Tobago)","Fuel type":"gas","Country/Area":"Trinidad and Tobago","Production Type":"conventional","Status":"operating","Discovery year":"1995","Production start year":"2000","Operator":"Perenco","Onshore/Offshore":"offshore","Basin":"Columbus Basin"}},{"type":"Feature","geometry":{"type":"Point","coordinates":[-119.224,59.404]},"properties":{"Unit Name":"Amigo Oil and Gas Field (Alberta, Canada)","Fuel type":"oil and gas","Country/Area":"Canada","Status":"operating","Discovery year":"1968","Onshore/Offshore":"onshore"}},{"type":"Feature","geometry":{"type":"Point","coordinates":[55.74,18.4363]},"properties":{"Unit Name":"Amin Oil Field (Oman)","Fuel type":"oil","Country/Area":"Oman","Production Type":"conventional","Status":"operating","Discovery year":"1975","Operator":"Petroleum Development Oman","Onshore/Offshore":"onshore"}},{"type":"Feature","geometry":{"type":"Point","coordinates":[-80.4629,-3.2678]},"properties":{"Unit Name":"Amistad Gas Field (Ecuador)","Fuel type":"gas","Country/Area":"Ecuador","Production Type":"conventional","Status":"operating","Production start year":"2003","Operator":"EP Petroecuador","Onshore/Offshore":"offshore"}},{"type":"Feature","geometry":{"type":"Point","coordinates":[-93.8733,18.3352]},"properties":{"Unit Name":"Amoca Oil and Gas Field (Federal Offshore, Mexico)","Fuel type":"oil and gas","Country/Area":"Mexico","Production Type":"conventional","Status":"operating","Discovery year":"2003","Production start year":"2022","Operator":"Eni méxico","Onshore/Offshore":"offshore","Basin":"Cuencas del Sureste"}},{"type":"Feature","geometry":{"type":"Point","coordinates":[-76.2226,-0.9296]},"properties":{"Unit Name":"Amo Oil and Gas Field (Ecuador)","Fuel type":"oil and gas","Country/Area":"Ecuador","Production Type":"conventional","Status":"operating","Discovery year":"1987","Operator":"Petrolia Ecuador","Onshore/Offshore":"onshore"}},{"type":"Feature","geometry":{"type":"Point","coordinates":[-98.6257,36.6938]},"properties":{"Unit Name":"Amplify Oklahoma Operating - Woods Oil and Gas Asset (Oklahoma, United States)","Fuel type":"oil and gas","Country/Area":"United States","Status":"operating","Operator":"Amplify Oklahoma Operating","Onshore/Offshore":"onshore"}},{"type":"Feature","geometry":{"type":"Point","coordinates":[-104.728,49.599]},"properties":{"Unit Name":"Amulet Ratcliffe Oil Pool (Saskatchewan, Canada)","Fuel type":"oil","Country/Area":"Canada","Discovery year":"1976","Onshore/Offshore":"onshore"}},{"type":"Feature","geometry":{"type":"Point","coordinates":[29.9699,44.0717]},"properties":{"Unit Name":"Ana Gas Field (Romania)","Fuel type":"gas","Country/Area":"Romania","Production Type":"conventional","Status":"in-development","Discovery year":"2007","Production start year":"2021","Operator":"Black Sea Oil & Gas","Onshore/Offshore":"offshore"}},{"type":"Feature","geometry":{"type":"Point","coordinates":[-36.073,-9.737]},"properties":{"Unit Name":"Anambé Oil and Gas Field (Alagoas, Brazil)","Fuel type":"oil and gas","Country/Area":"Brazil","Production Type":"conventional","Status":"operating","Discovery year":"2004","Production start year":"2005","Operator":"Origem Energia Alagoas","Onshore/Offshore":"onshore","Basin":"Alagoas"}},{"type":"Feature","geometry":{"type":"Point","coordinates":[-6.6056,35.1104]},"properties":{"Unit Name":"Anchois Phase 1 Gas Field (Morocco)","Fuel type":"gas","Country/Area":"Morocco","Production Type":"conventional","Status":"discovered","Discovery year":"2009","Operator":"Energean","Onshore/Offshore":"offshore"}},{"type":"Feature","geometry":{"type":"Point","coordinates":[-91.1338,27.1446]},"properties":{"Unit Name":"Anchor (GC807) - Chevron Oil and Gas Asset (Federal offshore, United States)","Fuel type":"oil and gas","Country/Area":"United States","Production Type":"conventional","Status":"operating","Discovery year":"2014","Production start year":"2024","Operator":"Chevron","Onshore/Offshore":"offshore"}},{"type":"Feature","geometry":{"type":"Point","coordinates":[-75.121,3.164]},"properties":{"Unit Name":"Andalucia Oil Field (Huila, Colombia)","Fuel type":"oil","Country/Area":"Colombia","Production Type":"conventional","Status":"operating","Production start year":"1981","Operator":"Hocol","Onshore/Offshore":"onshore"}},{"type":"Feature","geometry":{"type":"Point","coordinates":[105.8466,5.4744]},"properties":{"Unit Name":"Ande Ande Lumut Oil and Gas Field (Indonesia)","Fuel type":"oil and gas","Country/Area":"Indonesia","Production Type":"conventional","Status":"discovered","Discovery year":"2000","Operator":"Prima Energy Northwest Natuna","Onshore/Offshore":"offshore"}},{"type":"Feature","geometry":{"type":"Point","coordinates":[-71.742,6.58]},"properties":{"Unit Name":"Andina Norte Oil and Gas Field (Arauca, Colombia)","Fuel type":"oil and gas","Country/Area":"Colombia","Production Type":"conventional","Status":"operating","Operator":"Parex Resources Colombia Ltd Sucursal","Onshore/Offshore":"onshore"}},{"type":"Feature","geometry":{"type":"Point","coordinates":[-71.7468,6.601]},"properties":{"Unit Name":"Andina Oil and Gas Field (Arauca, Colombia)","Fuel type":"oil and gas","Country/Area":"Colombia","Production Type":"conventional","Status":"operating","Operator":"Parex Resources Colombia Ltd. Sucursal","Onshore/Offshore":"onshore"}},{"type":"Feature","geometry":{"type":"Point","coordinates":[1.4093,58.041]},"properties":{"Unit Name":"Andrew Oil and Gas Field (United Kingdom)","Fuel type":"oil and gas","Country/Area":"United Kingdom","Production Type":"conventional","Status":"operating","Discovery year":"1974","Production start year":"1996","Operator":"Bp Exploration","Onshore/Offshore":"offshore"}},{"type":"Feature","geometry":{"type":"Point","coordinates":[-40.524,-22.39]},"properties":{"Unit Name":"Anequim Oil and Gas Field (Rio de Janeiro, Brazil)","Fuel type":"oil and gas","Country/Area":"Brazil","Production Type":"conventional","Status":"mothballed","Discovery year":"1981","Production start year":"1985","Operator":"Petróleo Brasileiro","Onshore/Offshore":"offshore","Basin":"Campos"}},{"type":"Feature","geometry":{"type":"Point","coordinates":[12.343,44.391]},"properties":{"Unit Name":"Angela-Angelina Gas Field (Italy)","Fuel type":"gas","Country/Area":"Italy","Production Type":"conventional","Status":"operating","Discovery year":"1973","Operator":"Eni","Onshore/Offshore":"offshore"}},{"type":"Feature","geometry":{"type":"Point","coordinates":[-60.589,10.393]},"properties":{"Unit Name":"Angelin Gas Field (Trinidad and Tobago)","Fuel type":"gas","Country/Area":"Trinidad and Tobago","Production Type":"conventional","Status":"operating","Discovery year":"1995","Production start year":"2019","Operator":"BP Trinidad & Tobago","Onshore/Offshore":"offshore","Basin":"Columbus"}},{"type":"Feature","geometry":{"type":"Point","coordinates":[116.5979,-19.5043]},"properties":{"Unit Name":"Angel Oil and Gas Field (Western Australia, Australia)","Fuel type":"oil and gas","Country/Area":"Australia","Status":"operating","Discovery year":"1971","Production start year":"2008","Operator":"Woodside Energy","Onshore/Offshore":"offshore"}},{"type":"Feature","geometry":{"type":"Point","coordinates":[-73.8805,6.383]},"properties":{"Unit Name":"Angie Oil Field (Santander, Colombia)","Fuel type":"oil","Country/Area":"Colombia","Production Type":"conventional","Status":"operating","Operator":"Saint Aubin International Sas","Onshore/Offshore":"onshore"}},{"type":"Feature","geometry":{"type":"Point","coordinates":[-96.3292,18.643]},"properties":{"Unit Name":"Angostura Gas Field (Veracruz, Mexico)","Fuel type":"gas","Country/Area":"Mexico","Status":"operating","Discovery year":"1953","Operator":"Petróleos Mexicanos","Onshore/Offshore":"onshore","Basin":"Veracruz"}},{"type":"Feature","geometry":{"type":"Point","coordinates":[104.70926818920545,5.1957107664754245]},